city,district,facility_name,x_coordinate,y_coordinate,longitude,latitude
臺北市,中正區,臺北市立大學,301826.304,2769814.466,121.5135802260687,25.03555915306285
臺北市,中正區,國立臺北商業大學,303029.6389999996,2770526.642,121.5255318529356,25.041946957250392
臺北市,中正區,市立成功中學,302856.10199999885,2770575.489,121.52381400475281,25.04239401843723
臺北市,中正區,私立強恕中學,302495.9540000002,2768632.246,121.52017100435111,25.02486302252773
臺北市,中正區,私立開南商工,302656.899000001,2770577.267,121.52183999787465,25.04241701669716
臺北市,中正區,私立泰北中學女生部,302674.2800000006,2770230.7440000004,121.52199899876123,25.039288016992806
臺北市,中正區,市立建國中學,301686.9250000003,2769332.199,121.51218099603389,25.03121002312607
臺北市,中正區,市立北一女中,301768.2889999995,2770151.7380000004,121.5130180010205,25.038606021645805
臺北市,中正區,南門國小,301374.02300000004,2769776.19,121.50909699635274,25.035229019407538
臺北市,中正區,南門國中,301374.02300000004,2769776.19,121.50909699635274,25.035229019407538
臺北市,中正區,古亭國中,301532.83499999903,2768606.427,121.5106270047458,25.02466301572105
臺北市,中正區,國語實小,301570.4869999999,2769299.747,121.51102600023209,25.030921018565493
臺北市,中正區,忠義國小,301042.9649999998,2769169.942,121.50579399838868,25.02976702081637
臺北市,中正區,螢橋國小,301918.54999999906,2768637.24,121.51445000446958,25.0249280179342
臺北市,中正區,市大附小,301997.2059999995,2769900.723,121.5152770032299,25.036332016461454
臺北市,中正區,弘道國中,301998.8140000008,2770034.979,121.51529800132718,25.037544020494106
臺北市,中正區,中正國中,302685.8280000007,2769460.515,121.52208400187365,25.032334016252825
臺北市,中正區,河堤國小,302746.6219999995,2768455.9840000006,121.52264799865654,25.023263021494603
臺北市,中正區,東門國小,302537.9849999992,2770089.988,121.5206430029337,25.038022015897994
臺北市,中正區,忠孝國小,303628.978999999,2770649.947,121.53147600168015,25.043039021006823
臺北市,中正區,螢橋國中,303044.941,2767939.968,121.52558400305765,25.018594020256785
臺北市,大同區,市立明倫高中,302446.33400000056,2774244.515,121.51989300069891,25.07553201787455
臺北市,大同區,私立靜修女中,301997.7910000007,2772290.9669999992,121.51537300165373,25.05791102037707
臺北市,大同區,私立稻江高商,301659.1140000012,2773001.692,121.51204299710407,25.06433901819456
臺北市,大同區,市立成淵高中,302314.9900000011,2772664.689,121.51853099808054,25.06127401662247
臺北市,大同區,成淵高中(國中部),302363.2680000004,2772672.384,121.51900979276844,25.061341814942185
臺北市,大同區,忠孝國中,301223.9580000007,2771580.018,121.50767700069183,25.051519018622702
臺北市,大同區,永樂國小,301568.81600000005,2772708.2609999995,121.51113700390076,25.06169302290762
臺北市,大同區,太平國小,301600.52700000064,2772673.4890000005,121.51145000221248,25.06137802094468
臺北市,大同區,延平國小,301695.12599999947,2773189.69,121.51240699536952,25.0660350216865
臺北市,大同區,大橋國小,301794.2279999988,2772996.4440000006,121.5133820016406,25.064287015276296
臺北市,大同區,臺北市立啟聰學校,301811.1359999997,2774149.707,121.51359300448253,25.074698017956564
臺北市,大同區,民權國中,301892.5300000013,2772881.5090000005,121.51435200315314,25.06324601703785
臺北市,大同區,大同國小,302068.840000001,2773053.206,121.51610600317228,25.064790023187932
臺北市,大同區,蓬萊國小,302079.929999999,2772130.0030000005,121.51618100416674,25.056455018848006
臺北市,大同區,大龍國小,302127.5430000008,2774007.691,121.51672400038046,25.07340502335321
臺北市,大同區,雙蓮國小,302128.2229999999,2772535.928,121.51667500246835,25.060118022388483
臺北市,大同區,蘭州國中,302133.7100000009,2773555.4510000004,121.51676799678664,25.06932202078778
臺北市,大同區,日新國小,302174.9219999989,2771879.921,121.5171129965802,25.05419401689636
臺北市,大同區,建成國中,302188.9179999992,2771386.175,121.51723300245249,25.049736019666557
臺北市,大同區,重慶國中,302246.0170000002,2774287.9420000003,121.51790900028725,25.075931014854266
臺北市,中山區,大同大學,302683.7519999998,2773282.652,121.52220958994423,25.06684013459066
臺北市,中山區,實踐大學,305100.0520000008,2775147.162,121.54623416476642,25.08358653667618
臺北市,中山區,市立大同高中,303990.64599999983,2771974.7100000004,121.53511199937634,25.054986021470068
臺北市,中山區,私立中興中學,304681.93799999927,2771413.2110000006,121.54194100152462,25.0498920146147
臺北市,中山區,市立大直高中,304760.928,2774685.497,121.54285399815433,25.079431018168894
臺北市,中山區,私立稻江護理家事學校,303327.6899999992,2773122.7560000005,121.52858599633643,25.065374020552664
臺北市,中山區,市立中山女中,304200.6269999998,2771260.759,121.53716499973164,25.048533015513197
臺北市,中山區,私立大同高中,302688.92699999915,2773285.7610000004,121.52226100268206,25.066868021987666
臺北市,中山區,中山國小,303099.9329999992,2772849.49,121.52631799553686,25.062915015853974
臺北市,中山區,新興國中,303122.9600000011,2772739.92,121.52654200003948,25.061925017083674
臺北市,中山區,中正國小,304512.80499999964,2771493.506,121.54026799661634,25.050623017158454
臺北市,中山區,北安國中,304638.0819999999,2774503.013,121.54162900042533,25.077788023233666
臺北市,中山區,懷生國小,304664.61100000126,2770901.95,121.54174899979277,25.045277017849298
臺北市,中山區,吉林國小,303438.1450000007,2771942.739,121.52963499757347,25.05471701724873
臺北市,中山區,長安國小,303495.9929999993,2771393.6699999995,121.5301869968412,25.049758014648397
臺北市,中山區,長安國中,303671.81399999885,2771356.257,121.53192800334443,25.049414023226056
臺北市,中山區,長春國小,303866.9620000002,2771970.012,121.53388600103574,25.05494801972128
臺北市,中山區,大同高中(國中部),303958.6160000011,2772068.691,121.53479823657379,25.055835617834756
臺北市,中山區,五常國中,304792.43299999944,2772919.984,121.5430960032895,25.063491021176937
臺北市,中山區,大直高中(國中部),304799.87899999897,2774691.899,121.54324036711866,25.079487401883913
臺北市,中山區,五常國小,304703.3360000006,2772997.7180000003,121.54221600465087,25.064196023205902
臺北市,中山區,大佳國小,304067.96499999875,2774003.9460000005,121.53595799610083,25.07330301466247
臺北市,中山區,濱江國中,306563.13800000004,2774711.463,121.5607200025222,25.07959901687122
臺北市,中山區,大直國小,305121.89800000103,2774804.698,121.54643700147523,25.08049401871698
臺北市,中山區,永安國小,305421.18499999924,2774611.181,121.54939600295496,25.07873601951718
臺北市,中山區,濱江國小,306655.7680000008,2774455.2660000003,121.56162767274856,25.077282636435896
臺北市,松山區,私立育達高職,305934.4499999995,2771390.261,121.55435299510542,25.049639019121013
臺北市,松山區,私立育達家商,306072.90800000075,2771459.948,121.55572800476831,25.050263018950968
臺北市,松山區,市立中崙高中,306606.8150000008,2771283.2610000004,121.56101199740912,25.04864801863288
臺北市,松山區,市立西松高中,307218.1019999996,2772052.767,121.56710199684099,25.055572020479104
臺北市,松山區,松山國小,308415.0389999998,2771565.9150000005,121.57894399972275,25.051131021532186
臺北市,松山區,民生國中,307262.21799999964,2772528.258,121.56755899548736,25.05986302016847
臺北市,松山區,中崙高中(國中部),306709.446000001,2771390.775,121.56203352715609,25.049614798167333
臺北市,松山區,民權國小,306730.4990000011,2772818.908,121.56230099752452,25.062507018979414
臺北市,松山區,健康國小,306796.37100000103,2772167.2009999994,121.5629270012446,25.056621017413534
臺北市,松山區,西松國小,306798.9559999988,2771739.9799999995,121.56293500315597,25.052764021005853
臺北市,松山區,三民國小,306930.1129999993,2772904.698,121.56428300225036,25.063274014436907
臺北市,松山區,西松高中(國中部),307214.8209999997,2772053.044,121.56706949084656,25.055574645359613
臺北市,松山區,介壽國中,306151.3349999989,2772140.717,121.55653300270899,25.056406016814204
臺北市,松山區,中山國中,305040.0259999994,2772593.9939999995,121.54553699560242,25.060539021234906
臺北市,松山區,敦化國中,305171.0869999997,2771595.9520000005,121.54679599767265,25.05152401848839
臺北市,松山區,敦化國小,305348.65000000125,2771328.502,121.54854500100167,25.049103016623565
臺北市,松山區,民族國小,305628.9119999997,2772479.965,121.55136900340362,25.059488023365372
臺北市,松山區,民生國小,305698.7660000008,2772150.161,121.55204800029935,25.056508016549056
臺北市,大安區,國立臺灣師範大學,303242.0559999997,2768811.4990000003,121.52757063988463,25.026455260095783
臺北市,大安區,國立臺灣大學,303864.8370000004,2767764.512,121.53370063613173,25.016981070758085
臺北市,大安區,國立臺北科技大學,304036.86500000034,2770560.156,121.53551459014123,25.042213879397018
臺北市,大安區,國立臺灣科技大學,304565.0199999993,2767408.618,121.54062383942826,25.013743011203374
臺北市,大安區,國立臺北教育大學,304972.5390000006,2768613.521,121.54470934568828,25.024606081042684
臺北市,大安區,私立喬治工商,305987.6100000005,2768833.741,121.55477600335574,25.026557016471028
臺北市,大安區,私立開平餐飲學校,304736.91399999964,2769049.9880000004,121.54239199797354,25.02855501725339
臺北市,大安區,私立東方工商,305654.0669999992,2769451.458,121.55149600435249,25.03214601838343
臺北市,大安區,市立大安高工,304827.73700000084,2769428.955,121.54330700356759,25.03197302121935
臺北市,大安區,市立和平高中,305320.9549999998,2768050.0070000007,121.54813899557963,25.019506019878257
臺北市,大安區,私立延平中學,304326.57899999985,2769910.452,121.53836000041129,25.03633801847968
臺北市,大安區,國立師大附中,304533.6189999988,2769616.4139999994,121.54040000267265,25.0336760151724
臺北市,大安區,私立金甌女中,302902.5920000012,2769749.015,121.52424299703364,25.03493102247475
臺北市,大安區,銘傳國小,304104.9199999998,2767449.99,121.53606700213435,25.0141330193924
臺北市,大安區,龍門國中,304298.61400000064,2768643.4970000004,121.53803300248364,25.024901021296312
臺北市,大安區,幸安國小,303972.9009999997,2769979.941,121.53485799948686,25.03697801680312
臺北市,大安區,龍安國小,303977.692,2768536.997,121.53484899975534,25.023951018857975
臺北市,大安區,金華國小,303259.1700000008,2769453.434,121.52776500419334,25.032250023153974
臺北市,大安區,古亭國小,303337.1369999996,2768171.1670000004,121.52848800163669,25.020671016385407
臺北市,大安區,私立新民小學,303677.31999999913,2768362.242000001,121.53186600476823,25.02238401523463
臺北市,大安區,金華國中,303800.7399999988,2769339.471,121.53312699506863,25.031202017174596
臺北市,大安區,新生國小,303835.9050000009,2769251.2180000003,121.53347199810203,25.030404022999733
臺北市,大安區,師大附中(國中部),304533.74299999943,2769619.667,121.54040136005918,25.033705378588074
臺北市,大安區,民族國中,304385.5970000009,2767124.452,121.53883500416316,25.011184022312392
臺北市,大安區,國北教大實小,304586.9030000008,2768656.1650000005,121.54088999576467,25.025005021121498
臺北市,大安區,懷生國中,304612.70100000064,2770357.7640000004,121.54121300440492,25.040366021877038
臺北市,大安區,私立復興小學,305336.97599999973,2770249.911,121.54838599724587,25.03936601748647
臺北市,大安區,私立復興國中,305337.92499999976,2770239.946,121.54839500139678,25.039276019560738
臺北市,大安區,和平高中(國中部),305422.7990000006,2768065.2839999995,121.5491486779069,25.019640216089964
臺北市,大安區,大安國小,305473.45599999966,2768050.736,121.54965000231726,25.019507022890295
臺北市,大安區,芳和實驗國中,305540.32800000045,2767961.9500000007,121.55030899546541,25.01870301713875
臺北市,大安區,仁愛國中,305569.9120000003,2770044.165,121.5506860007806,25.037500022708805
臺北市,大安區,建安國小,305116.1009999991,2769143.671000001,121.54615299857669,25.029387023202027
臺北市,大安區,大安國中,305200.9489999996,2769250.0170000005,121.54699799531492,25.030344016099416
臺北市,大安區,和平實驗國小,305215.0569999998,2768211.7980000004,121.54709623363017,25.02097052470443
臺北市,大安區,私立立人中小學,305695.4909999999,2769191.9880000004,121.55189599561062,25.029802019129228
臺北市,大安區,仁愛國小,305742.7390000008,2769855.6779999994,121.55239099587455,25.035792021150385
臺北市,大安區,公館國小,304792.21600000083,2767262.761,121.54286900181698,25.012418019382626
臺北市,萬華區,私立立人高中,300098.0539999993,2770161.239,121.49646700125176,25.038748018144172
臺北市,萬華區,市立大理高中,299578.31400000106,2769282.959,121.49128499601865,25.030836019005463
臺北市,萬華區,市立華江高中,300072.5349999991,2769029.001,121.49617300187855,25.02852701616616
臺北市,萬華區,華江國小,299568.5349999994,2769641.9169999994,121.49120099920518,25.034077015698124
臺北市,萬華區,龍山國小,300082.9479999994,2769849.93,121.49630599720801,25.035938021461913
臺北市,萬華區,大理高中(國中部),299597.65600000066,2769265.406,121.4914760243185,25.030676916666522
臺北市,萬華區,雙園國中,299725.1289999998,2768928.2650000006,121.49272699545402,25.027629021486096
臺北市,萬華區,福星國小,301350.52299999946,2771007.4960000003,121.50890999980248,25.046346017338646
臺北市,萬華區,大理國小,300180.9009999997,2769199.979,121.49725299876907,25.030067018215714
臺北市,萬華區,東園國小,300245.6840000003,2768433.1600000006,121.49786699595603,25.023142021151674
臺北市,萬華區,雙園國小,300274.08999999927,2769298.682,121.49817999857568,25.03095501702108
臺北市,萬華區,萬華國中,300327.90499999915,2769099.944,121.4987059981461,25.02915902147399
臺北市,萬華區,西園國小,300345.3899999997,2768818.994,121.49886899936611,25.026622022031823
臺北市,萬華區,萬大國小,300395.4200000005,2768415.767,121.49934999815724,25.022980020847655
臺北市,萬華區,私立光仁小學,300435.7549999999,2768233.926,121.49974300393878,25.021337015370417
臺北市,萬華區,老松國小,300733.9730000001,2770087.711,121.50276600240221,25.03806301998928
臺北市,萬華區,新和國小,300796.759000001,2768752.4320000005,121.50333899698778,25.026006023010694
臺北市,萬華區,西門國小,300820.9980000009,2770619.936,121.50364800394645,25.042865018044566
臺北市,萬華區,龍山國中,300920.07099999906,2769866.981,121.50460199638391,25.03606402164406
臺北市,信義區,臺北醫學大學,306788.3780000002,2768843.9799999995,121.56271086047263,25.02661962848186
臺北市,信義區,市立松山高中,307095.17699999915,2770756.9310000003,121.56583000286552,25.04387801542084
臺北市,信義區,市立松山家商,308546.38200000033,2769760.956,121.58016899564859,25.034831015323636
臺北市,信義區,私立協和工商,308877.39600000106,2770625.706,121.58348599962643,25.042625020380903
臺北市,信義區,私立祐德高中,308877.39600000106,2770625.706,121.58348599962643,25.042625020380903
臺北市,信義區,市立松山工農,307724.30099999986,2770313.735,121.5720460012745,25.03985302000373
臺北市,信義區,市立河濱高中(籌),307932.1250000012,2771254.4820000003,121.5741449954089,25.04833802231752
臺北市,信義區,市立永春高中,308395.81199999887,2769525.484,121.57866700076877,25.03271101992741
臺北市,信義區,雙永國小,308500.08100000024,2770706.48,121.57975031758843,25.043368874473686
臺北市,信義區,永吉國中,307932.1250000012,2771254.4820000003,121.5741449954089,25.04833802231752
臺北市,信義區,興雅國中,307757.48500000034,2769935.7130000005,121.57235900271468,25.036439014926685
臺北市,信義區,瑠公國中,309066.3339999995,2770011.2039999994,121.585332001918,25.037070016862202
臺北市,信義區,福德國小,309233.98600000027,2770189.935,121.58700100052216,25.03867702222415
臺北市,信義區,信義國中,307314.47999999934,2769066.536,121.56793300379584,25.02860901722542
臺北市,信義區,吳興國小,307382.3929999998,2768779.711,121.56859399995433,25.026017016200793
臺北市,信義區,興雅國小,307478.93699999934,2771139.915,121.56964900443599,25.047321016150647
臺北市,信義區,博愛國小,307634.2670000004,2769935.747,121.57113799938212,25.036444019706042
臺北市,信義區,光復國小,306288.9730000004,2770350.944,121.55782400430802,25.040243017593465
臺北市,信義區,三興國小,306314.6649999998,2769185.443,121.55803099941112,25.029720023356454
臺北市,信義區,信義國小,306905.920999999,2769339.976,121.56389600309481,25.03109302139006
臺北市,士林區,銘傳大學,303159.2660000012,2775539.6250000005,121.52701001649805,25.08719922140965
臺北市,士林區,中國文化大學,304488.16599999915,2781118.969,121.5404054056528,25.137521288245466
臺北市,士林區,東吳大學,305046.51199999923,2776349.8429999994,121.54575157000559,25.094446128834573
臺北市,士林區,私立衛理女中,305700.7020000012,2777158.662,121.55227000171548,25.10172401829974
臺北市,士林區,私立華岡藝校,305350.62900000083,2781072.465,121.54895699863434,25.137070015811286
臺北市,士林區,私立華興中學,304281.646000001,2777471.946,121.53821299954508,25.104604021305303
臺北市,士林區,市立百齡高中,302760.0939999999,2775517.67,121.52305199570287,25.087015015711607
臺北市,士林區,私立泰北中學,303920.9000000012,2776649.942,121.53460399647012,25.097196016828413
臺北市,士林區,市立陽明高中,302168.6520000001,2776050.956,121.517208995883,25.091850022731126
臺北市,士林區,市立士林高商,302080.777999999,2776398.762,121.51635100472839,25.094993015249724
臺北市,士林區,富安國小,298656.35499999934,2777590.254,121.48244299571273,25.105864015398204
臺北市,士林區,福安國中,299157.1999999992,2777313.916,121.4873990005572,25.103353018470727
臺北市,士林區,社子國小,300730.825,2775818.6750000003,121.5029459991634,25.089802015133365
臺北市,士林區,陽明高中(國中部),302166.45199999964,2776051.998,121.51718722495038,25.091859505836176
臺北市,士林區,百齡國小,302233.58699999924,2775425.921000001,121.51782900456202,25.08620502109366
臺北市,士林區,葫蘆國小,301198.9029999987,2775109.9630000005,121.5075599971436,25.08338801645211
臺北市,士林區,臺北市立啟明學校,303975.2430000006,2778793.4119999995,121.53522700076834,25.11654501520816
臺北市,士林區,雨聲國小,303982.6420000002,2777257.7500000005,121.53524000244305,25.102681018434176
臺北市,士林區,臺北市立啟智學校,304090.20499999897,2778794.7550000004,121.53636699555308,25.116553019893622
臺北市,士林區,芝山國小,304099.67699999886,2778111.6840000004,121.53643400349733,25.11038601940201
臺北市,士林區,三玉國小,304186.3830000003,2778954.976,121.53732700316128,25.117996016350606
臺北市,士林區,天母國中,304271.0019999998,2778952.9870000007,121.53816600047278,25.11797501642599
臺北市,士林區,私立華興小學,304281.646000001,2777471.946,121.53821299954508,25.104604021305303
臺北市,士林區,蘭雅國小,302760.9040000006,2777887.22,121.52315100447963,25.108407014641095
臺北市,士林區,百齡高中(國中部),302764.8589999987,2775511.5080000004,121.52309899684106,25.0869592192788
臺北市,士林區,士林國小,302961.8540000012,2776163.0109999995,121.52507699575762,25.09283402105033
臺北市,士林區,士東國小,303128.8599999987,2778394.9720000005,121.52681899737937,25.11297801542879
臺北市,士林區,文昌國小,302594.9140000009,2776889.999,121.52146700322312,25.099410019388678
臺北市,士林區,士林國中,302708.93699999986,2776329.9539999994,121.52257599830098,25.094350017435065
臺北市,士林區,劍潭國小,302732.93299999944,2774689.909,121.52275099585304,25.079543017729716
臺北市,士林區,天母國小,303190.6800000012,2779144.007,121.52746099850991,25.119738017085744
臺北市,士林區,雨農國小,303446.4519999995,2777544.74,121.5299350040321,25.10529101586044
臺北市,士林區,福林國小,303448.9650000007,2776749.989,121.52992900122088,25.098116017179265
臺北市,士林區,蘭雅國中,303557.8110000006,2778131.474,121.53106199950587,25.110584020029624
臺北市,士林區,格致國中,305137.0230000005,2780411.415,121.5468119956784,25.13111001772638
臺北市,士林區,陽明山國小,305758.5519999988,2779164.254,121.55292499732425,25.119828016805897
臺北市,士林區,至善國中,306023.823000001,2777364.244,121.5554819972779,25.10356801481731
臺北市,士林區,雙溪國小,306864.616999999,2777648.195,121.56382999502893,25.10610001591375
臺北市,士林區,溪山實小,308450.8299999992,2779171.452,121.57962199834775,25.119791020050936
臺北市,士林區,平等國小,308113.14700000023,2780197.945,121.57631700394955,25.129071020034292
臺北市,北投區,臺北城市科技大學,297195.5859999991,2780406.722,121.46805624148804,25.13133731695739
臺北市,北投區,馬偕醫護管理專科學校,296846.5889999997,2779365.417,121.46455964383443,25.121947378555824
臺北市,北投區,國立臺北藝術大學,297007.916000001,2780250.98,121.46618975970405,25.129937156586696
臺北市,北投區,國立臺北護理健康大學,302575.0249999999,2778899.143,121.52134672825211,25.117549014320108
臺北市,北投區,國立陽明大學,301763.59799999883,2779128.817,121.51330933923435,25.119650558732406
臺北市,北投區,私立志仁家商,297148.06500000064,2780174.909,121.46757700287661,25.129246014909846
臺北市,北投區,市立中正高中,302098.84000000125,2777451.68,121.51656999720721,25.104498022833663
臺北市,北投區,私立惇敘工商,303139.21599999955,2781888.428,121.52705700023148,25.14451602132549
臺北市,北投區,市立復興高中,300593.9400000002,2781788.995,121.50180900099735,25.143706019672145
臺北市,北投區,私立薇閣高中,300874.173000001,2781374.992,121.5045730048939,25.13995901834643
臺北市,北投區,私立十信工商,300038.9399999993,2780679.925,121.49626399959395,25.133712019217285
臺北市,北投區,文化國小,300079.7099999999,2781054.471,121.4966820038481,25.13709201993072
臺北市,北投區,北投國小,300445.5040000009,2780734.263,121.50029799860081,25.134189017968634
臺北市,北投區,私立薇閣小學,300535.9790000002,2780890.0070000007,121.50120100480977,25.13559202272104
臺北市,北投區,關渡國小,297075.468,2779910.6990000005,121.46684799652013,25.126863016222714
臺北市,北投區,關渡國中,297129.77099999913,2779138.95,121.46736000061995,25.119894022324374
臺北市,北投區,桃源國中,298131.2980000013,2780782.922,121.47734899644037,25.134704016395613
臺北市,北投區,桃源國小,298851.8930000009,2781333.017,121.48451499698938,25.139647020686613
臺北市,北投區,逸仙國小,300918.4519999987,2781182.421,121.50500500172564,25.138219017830497
臺北市,北投區,立農國小,300957.1840000008,2779105.997,121.50531200340959,25.119472015273466
臺北市,北投區,新民國中,301074.66799999925,2781255.006,121.50655699508627,25.138869016340212
臺北市,北投區,清江國小,301096.9750000001,2779880.014,121.506727004736,25.12645501531121
臺北市,北投區,石牌國小,301691.9929999997,2778589.931,121.51257900422978,25.114788018939105
臺北市,北投區,義方國小,300669.984000001,2781539.939,121.50255400436548,25.14145502015856
臺北市,北投區,大屯國小,300838.81200000056,2783011.24,121.50428299929297,25.154732017558505
臺北市,北投區,北投國中,300842.5660000007,2780767.2,121.50423699911325,25.134473021679614
臺北市,北投區,明德國小,302623.3530000012,2778300.518,121.5218029994387,25.112143021457545
臺北市,北投區,私立奎山國中,302649.72299999936,2778392.446,121.52206799563034,25.112972015057853
臺北市,北投區,私立奎山中學附設國小,302727.93199999933,2778380.0110000004,121.5228430031709,25.11285702101632
臺北市,北投區,泉源國小,302865.97300000023,2782459.926,121.52436899614865,25.149685021955996
臺北市,北投區,湖山國小,303987.86799999885,2782497.677,121.53549799764747,25.149986018209948
臺北市,北投區,石牌國中,301856.62399999955,2778604.957,121.51421200476761,25.114918019240996
臺北市,北投區,文林國小,301913.66799999983,2777609.481,121.51474000378057,25.10592901609692
臺北市,北投區,湖田國小,304308.9920000008,2784538.6589999995,121.5387639985245,25.168400021732875
臺北市,北投區,明德國中,302274.1400000009,2777791.412,121.51832100370838,25.107559019497245
臺北市,內湖區,德明財經科技大學,307054.821,2775477.142,121.56562571872963,25.08649295034467
臺北市,內湖區,國立臺灣戲曲學院,309171.87900000124,2774929.583,121.58658923279344,25.081468210493867
臺北市,內湖區,國防醫學院,310064.90000000055,2773757.786,121.59539049289776,25.070854207203812
臺北市,內湖區,康寧大學,311542.6839999999,2774244.133,121.61006006203405,25.075185371245688
臺北市,內湖區,市立南湖高中,311655.3740000004,2773327.2120000003,121.61113600381003,25.06690301461035
臺北市,內湖區,私立文德女中,309493.4149999991,2774499.959,121.5897580040904,25.077577016086686
臺北市,內湖區,私立方濟中學,309536.8149999989,2774472.0130000003,121.59018700065165,25.07732301494705
臺北市,內湖區,市立內湖高中,309173.93499999883,2774589.953,121.58659500260904,25.07840201472988
臺北市,內湖區,私立達人女中,309277.2710000008,2774906.9799999995,121.58763299894323,25.081260021898785
臺北市,內湖區,市立內湖高工,308049.1069999995,2774733.2159999995,121.5754510048194,25.07973901753196
臺北市,內湖區,市立麗山高中,308297.2129999988,2775218.666,121.5779310018245,25.084112017331936
臺北市,內湖區,私立西湖工商,307409.93999999936,2775018.951,121.56912700490157,25.08234301758896
臺北市,內湖區,文湖國小,306501.1610000009,2775401.736,121.56013399616066,25.08583301699662
臺北市,內湖區,麗山國小,307746.9220000001,2775149.7520000003,121.57247299925315,25.08351101831255
臺北市,內湖區,麗山國中,308021.42900000105,2774955.189,121.57518600270654,25.08174401506188
臺北市,內湖區,西湖國中,307060.2979999993,2775404.5079999994,121.56567699994336,25.085837015528405
臺北市,內湖區,西湖國小,307061.7460000011,2775178.9900000007,121.56568199629312,25.083801020919957
臺北市,內湖區,內湖國小,308529.99299999926,2774664.4909999995,121.58021499577231,25.07910002116311
臺北市,內湖區,三民國中,309145.7849999994,2773567.214,121.58627199788963,25.069170015490048
臺北市,內湖區,內湖國中,309389.6869999994,2774435.2609999995,121.58872699859577,25.07699701683627
臺北市,內湖區,新湖國小,309393.2229999992,2773530.5170000005,121.58872299709151,25.06882901603755
臺北市,內湖區,潭美國小,309605.7700000009,2772658.919,121.59079199692748,25.06095201548002
臺北市,內湖區,碧湖國小,309626.2630000004,2775356.451,121.59111200205068,25.08530401718268
臺北市,內湖區,康寧國小,310015.883,2774774.74,121.59494899670626,25.080037014518336
臺北市,內湖區,大湖國小,310558.3390000012,2775677.692,121.6003659986276,25.088167015658122
臺北市,內湖區,麗湖國小,310658.373999999,2774006.742,121.60128399574305,25.073078021950028
臺北市,內湖區,南湖國小,311726.8140000009,2773458.9080000003,121.61185000056032,25.0680890212479
臺北市,內湖區,東湖國小,312123.98300000053,2773510.9999999995,121.61578900099198,25.068543020307146
臺北市,內湖區,東湖國中,312510.6779999993,2774086.773,121.61964800001702,25.073725016953517
臺北市,內湖區,明湖國小,311596.87699999893,2773791.9570000004,121.61057700008688,25.07110101753535
臺北市,內湖區,明湖國中,311609.61399999977,2773741.725000001,121.61070100064849,25.070647014704296
臺北市,南港區,中華科技大學,311548.7940000011,2769637.233,121.60991476272942,25.033594938364217
臺北市,南港區,市立南港高中,310039.90400000045,2771722.944,121.59505399733561,25.052485016176227
臺北市,南港區,市立南港高工,311263.3270000002,2772154.951,121.60719799543169,25.056336022669548
臺北市,南港區,市立育成高中,311461.62899999955,2772416.26,121.60917499682546,25.058687019937285
臺北市,南港區,東新國小,310743.875,2772137.011,121.60204899517416,25.056195022656215
臺北市,南港區,成德國小,309217.82999999984,2771099.937,121.58688000337474,25.04689302071426
臺北市,南港區,成德國中,309312.2489999997,2770897.751,121.58780700408646,25.045064016427446
臺北市,南港區,修德國小,309497.3810000003,2770951.947,121.58964399619315,25.04554601937641
臺北市,南港區,玉成國小,310009.9909999988,2771848.203,121.59476299994013,25.05361702045815
臺北市,南港區,南港高中(國中部),310038.2189999989,2771722.31,121.59503727042043,25.052479359432233
臺北市,南港區,南港國小,312133.3480000013,2772052.4339999994,121.61581600198447,25.055375017106538
臺北市,南港區,胡適國小,312281.36400000035,2770615.66,121.61721800237342,25.042398023252584
臺北市,南港區,誠正國中,312430.22399999906,2771914.22,121.61875199933533,25.05411502166111
臺北市,南港區,舊莊國小,312521.09299999895,2770380.928,121.6195829971693,25.04026902119909
臺北市,文山區,世新大學,304926.9240000005,2764627.737,121.54409883300985,24.988624215566198
臺北市,文山區,中國科技大學,306063.50299999974,2765810.8549999995,121.55540522262682,24.999263772008938
臺北市,文山區,臺灣警察專科學校,306457.6900000012,2765677.834,121.55930473892951,24.998048234479533
臺北市,文山區,國立政治大學,308198.8929999999,2764507.781,121.57650421625735,24.987419227452435
臺北市,文山區,私立大誠中學,308370.8309999999,2764902.711,121.57822400266117,24.990978021883556
臺北市,文山區,國立政大附中,309155.3050000009,2764488.706,121.58597699926861,24.987210017789756
臺北市,文山區,市立木柵高工,307728.3079999993,2765443.743,121.5718819951471,24.995887022070132
臺北市,文山區,私立景文高中,307280.6410000012,2764276.481,121.56739900353313,24.985366019835563
臺北市,文山區,私立東山中學,306635.2100000001,2763034.426,121.56095499862558,24.97417701828574
臺北市,文山區,市立萬芳高中,306404.1800000005,2765955.726,121.5587860021439,25.00055902212014
臺北市,文山區,私立再興中學,306442.2110000009,2764835.695,121.5591170014881,24.990446015497298
臺北市,文山區,市立景美女中,306155.37699999934,2763759.191,121.55623199944876,24.980738015542155
臺北市,文山區,私立滬江中學,304428.7380000003,2764753.6609999994,121.53916900037252,24.98977901812407
臺北市,文山區,景美國小,304539.92000000115,2764719.987,121.54026899765236,24.989471014981902
臺北市,文山區,武功國小,304556.16700000106,2766317.1970000006,121.5404930029316,25.00389001571692
臺北市,文山區,景美國中,304808.5959999999,2765113.5070000007,121.54294599740183,24.993014021614535
臺北市,文山區,萬福國小,304194.93799999985,2766459.98,121.5369200012261,25.00519201823495
臺北市,文山區,志清國小,304392.30999999883,2765740.447,121.53884700176943,24.99868901794637
臺北市,文山區,溪口國小,304424.94800000056,2765249.991,121.53915100469175,24.99426001685855
臺北市,文山區,私立靜心小學,305182.4799999988,2765773.5169999995,121.54667600203223,24.998959014368562
臺北市,文山區,私立靜心中學,305182.4799999988,2765773.5169999995,121.54667600203223,24.998959014368562
臺北市,文山區,景興國小,305338.6139999993,2765455.915,121.54820999658173,24.996086021006974
臺北市,文山區,興福國中,305489.80999999907,2766432.716,121.54974699912894,25.004899019487475
臺北市,文山區,永建國小,305558.92500000005,2764549.959,121.55035599844672,24.9878990160643
臺北市,文山區,興德國小,305629.9349999989,2766130.0049999994,121.55112299787301,25.002161019735308
臺北市,文山區,興隆國小,305710.2700000004,2766158.688,121.55192000052983,25.002417017949274
臺北市,文山區,實踐國中,306003.7270000004,2764057.1980000003,121.55474199690723,24.98343402226789
臺北市,文山區,景興國中,304948.81500000105,2765465.753,121.54434899596028,24.9961890164612
臺北市,文山區,實踐國小,306278.95100000023,2764029.97,121.55746700406081,24.983178022604047
臺北市,文山區,辛亥國小,306378.1469999989,2766589.9820000003,121.55855399824041,25.006286020585584
臺北市,文山區,興華國小,306394.26300000097,2765765.719,121.55868000305409,24.998844017059074
臺北市,文山區,私立再興小學,306442.2110000009,2764835.695,121.5591170014881,24.990446015497298
臺北市,文山區,萬芳高中(國中部),306414.0679999992,2765930.319,121.55888291947309,25.00032928099163
臺北市,文山區,力行國小,306637.1710000002,2763781.224,121.56100500327236,24.980919018943567
臺北市,文山區,明道國小,306883.9200000005,2764509.985,121.56347900367535,24.98748901471434
臺北市,文山區,萬芳國小,307291.2169999994,2766042.929,121.56757699652158,25.00131301731431
臺北市,文山區,木柵國中,307309.1429999995,2764509.9860000005,121.5676910023165,24.987473015618313
臺北市,文山區,臺北市立文山特殊教育學校,307465.0600000008,2764956.921,121.5692540016423,24.991502021911522
臺北市,文山區,木柵國小,307526.9330000007,2764791.251,121.56986000135397,24.990004016184635
臺北市,文山區,博嘉國小,307882.9560000012,2765659.949,121.57342300378556,24.997833018713795
臺北市,文山區,萬興國小,308210.273999999,2764841.437,121.5766310008641,24.990431015986243
臺北市,文山區,政大附中(國中部),309155.5110000008,2764488.9030000004,121.58597904819707,24.987211788256076
臺北市,文山區,北政國中,308378.9570000005,2764227.951,121.57827599811851,24.984886019375555
臺北市,文山區,指南國小,308926.18499999994,2763350.913,121.58365900070136,24.97694701699274
新北市,萬里區,私立中華商海,319066.9240000008,2785679.967,121.68521799735349,25.178098019470227
新北市,萬里區,萬里國小,319457.89999999903,2785450.004,121.6890850048379,25.1760040162511
新北市,萬里區,野柳國小,319521.98300000106,2788739.95,121.68988800395806,25.205701020143216
新北市,萬里區,萬里國中,320053.9780000013,2785620.0019999994,121.6950069967316,25.177511022998722
新北市,萬里區,大坪國小,314389.96099999937,2784450.012,121.63876200405862,25.167202022604087
新北市,萬里區,崁腳國小,315497.89999999973,2783729.979,121.6497179981092,25.160654022678028
新北市,萬里區,大鵬國小,315595.9239999993,2789019.9130000006,121.6509440034648,25.208405018913524
新北市,金山區,法鼓文理學院,311931.7689999993,2792774.916,121.61475469703305,25.24245923020777
新北市,金山區,市立金山高中,314236.9519999988,2790829.954,121.63754400414288,25.224804019813234
新北市,金山區,三和國小,310717.9399999999,2790159.951,121.60259000469773,25.218902021407366
新北市,金山區,中角國小,313523.939000001,2792509.994,121.63054600121565,25.240001021628736
新北市,金山區,金美國小,314030.88799999974,2790412.592,121.63547936545449,25.221045069776753
新北市,金山區,金山國小,314161.94899999886,2790709.965,121.63679400431974,25.22372402227878
新北市,金山區,金山高中(國中部),314175.3859999998,2790815.378,121.63693231353248,25.224675068726224
新北市,板橋區,國立臺灣藝術大學,295175.76699999894,2766504.447,121.44756910485162,25.005889179181626
新北市,板橋區,亞東技術學院,295738.2510000008,2765319.423,121.45310241801117,24.995173792845865
新北市,板橋區,致理科技大學,296952.3849999993,2768167.503,121.4652266805193,25.020849355794542
新北市,板橋區,國立板橋高中,296337.3879999997,2767150.2,121.45909899672785,25.01168401445349
新北市,板橋區,國立華僑中學,295178.8899999997,2766686.427,121.44760599853072,25.007532019317416
新北市,板橋區,市立海山高中,297527.6699999996,2766984.703,121.47088599883135,25.010153023249572
新北市,板橋區,私立豫章工商,296259.0149999991,2765552.476,121.45826899943545,24.99726201804808
新北市,板橋區,私立光仁高中,298130.5639999995,2767871.387,121.47688999799153,25.01813901942718
新北市,板橋區,光復高中(國中部),298730.99499999965,2767699.943,121.48283300330574,25.016572015997507
新北市,板橋區,文聖國小,298154.9959999988,2769129.9969999995,121.47717600159832,25.02950102334327
新北市,板橋區,文德國小,296272.87200000044,2768349.1310000005,121.45850000337792,25.022510021289254
新北市,板橋區,海山高中(國中部),297527.9370000008,2766985.755,121.47088868031021,25.010162512397244
新北市,板橋區,海山國小,297529.617000001,2766918.139,121.47090299692675,25.009552018089995
新北市,板橋區,莒光國小,297797.84699999995,2768753.578,121.4736240032798,25.026114017287178
新北市,板橋區,江翠國小,297849.4119999995,2769446.933,121.47415899674559,25.032372022816986
新北市,板橋區,埔墘國小,297883.9919999996,2767930.003,121.47444899938021,25.01867602335588
新北市,板橋區,沙崙國小,293408.9420000004,2764719.935,121.4300089951357,24.989830015317715
新北市,板橋區,溪洲國小,293497.9540000003,2764442.5310000004,121.4308819985225,24.987323022564986
新北市,板橋區,溪崑國中,293533.2160000011,2765671.468,121.43127000378632,24.99841701931404
新北市,板橋區,中山國小,295188.87800000026,2766107.379,121.44768600388116,25.002304018303462
新北市,板橋區,大觀國中,295270.0849999988,2767098.665,121.44852300007126,25.011251020686593
新北市,板橋區,大觀國小,295354.42499999894,2766806.413,121.4493489956745,25.00861002029054
新北市,板橋區,信義國小,295710.2059999988,2764938.544,121.4528120001517,24.991736022128865
新北市,板橋區,國光國小,295754.1590000007,2768005.119,121.4533489970833,25.01942001807591
新北市,板橋區,板橋國中,295834.2080000005,2768512.805,121.45415899714013,25.024001023011564
新北市,板橋區,新埔國中,296240.0679999993,2768558.921,121.45818200080843,25.02440502098123
新北市,板橋區,板橋國小,296250.39000000025,2767058.635,121.45823399694628,25.01086001684882
新北市,板橋區,忠孝國中,296596.9439999999,2766393.114,121.46164499583028,25.00484102169332
新北市,板橋區,新埔國小,296684.67599999945,2768724.1439999994,121.46259299598276,25.025883020131243
新北市,板橋區,後埔國小,296703.79800000053,2766227.884,121.46269800438098,25.003346022384324
新北市,板橋區,重慶國中,296751.97899999964,2765656.831,121.46315599689719,24.998189021568777
新北市,板橋區,重慶國小,296758.95399999915,2765269.9509999994,121.46321200076166,24.994696018732768
新北市,板橋區,實踐國小,297076.0309999995,2766414.248,121.46639200102237,25.00501701434858
新北市,板橋區,中山國中,297183.9940000003,2767860.002,121.46751099868521,25.01806602041677
新北市,板橋區,江翠國中,297273.28599999973,2769065.221,121.46843700035453,25.028944014686157
新北市,汐止區,私立崇義高中,317486.9589999994,2774459.97,121.66899200295015,25.076880017196185
新北市,汐止區,市立秀峰中學,316634.998999999,2773219.9170000004,121.66048700169952,25.06572302219333
新北市,汐止區,秀峰國小,316776.903999999,2772879.992,121.66187700325519,25.062648017962122
新北市,汐止區,白雲國小,312419.9690000012,2771199.934,121.61861800147005,25.04766701940509
新北市,汐止區,金龍國小,313361.9770000001,2773560.005,121.6280619977754,25.068934022073602
新北市,汐止區,北峰國小,313800.9219999992,2772939.969,121.6323839986782,25.063318022563525
新北市,汐止區,樟樹實中(國中部),314537.3130000003,2773224.335,121.63969595668314,25.065853941007802
新北市,汐止區,樟樹國小,314737.9130000011,2773390.009,121.64169200412934,25.06734102198321
新北市,汐止區,北港國小,315069.9509999999,2775820.0,121.64509799618425,25.089264022229774
新北市,汐止區,汐止國小,316042.98800000094,2773359.931,121.6546260022117,25.067013014628838
新北市,汐止區,青山國中小(國中部),316260.29499999987,2772651.424,121.65674576277563,25.06060730691394
新北市,汐止區,青山國中小(國小部),316270.25100000086,2772663.045,121.65684499689698,25.060711781530838
新北市,汐止區,汐止國中,316415.92500000075,2773310.012,121.65831999766577,25.066546016551893
新北市,汐止區,秀峰高中(國中部),316592.5620000005,2773202.4479999994,121.6600655425342,25.065567187790307
新北市,汐止區,崇德國小,317542.96900000115,2773579.954,121.6695039983414,25.068933015366092
新北市,汐止區,長安國小,317743.9299999995,2774720.005,121.67155200055008,25.07921602335496
新北市,汐止區,保長國小,318544.9710000001,2773930.003,121.67945299849627,25.072048018309815
新北市,汐止區,東山國小,320614.9220000009,2772600.0110000004,121.69990199831729,25.05994602084973
新北市,深坑區,東南科技大學,311041.4710000005,2766404.6299999994,121.60474470209687,25.004432015602728
新北市,深坑區,深坑國小,312269.9400000002,2766100.015,121.61690099769034,25.00163201755291
新北市,深坑區,深坑國中,312407.63899999985,2766112.849,121.61826568282896,25.00174221757992
新北市,石碇區,華梵大學,319873.42399999953,2763742.633,121.69210454133355,24.980018757307892
新北市,石碇區,市立石碇高中,314897.94000000024,2767440.0140000004,121.64299799793973,25.013619018078952
新北市,石碇區,石碇國小,316523.995,2764909.994,121.65898599708875,24.9907080198407
新北市,石碇區,永定國小,319466.9699999998,2766829.9630000005,121.68823399999896,25.007909021765766
新北市,石碇區,雲海國小,314311.92899999884,2760749.934,121.63688099561912,24.953247023202287
新北市,石碇區,和平國小,314754.9949999992,2767209.934,121.64157100009093,25.0115480192429
新北市,石碇區,石碇高中(國中部),314802.5370000008,2767355.315,121.6420488315832,25.012858456812033
新北市,瑞芳區,國立瑞芳高工,331054.9320000006,2778250.008,121.80370399805462,25.11042701599015
新北市,瑞芳區,瑞芳國小,331073.9470000011,2777969.973,121.80387599615892,25.10789801796619
新北市,瑞芳區,瑞芳國中,332237.9530000009,2777960.005,121.81541600159225,25.107745022756482
新北市,瑞芳區,瑞濱國小,332706.94799999904,2779389.958,121.8201520021207,25.12062801715267
新北市,瑞芳區,瑞柑國小,333023.9390000013,2778229.969,121.82322499561191,25.11013901740304
新北市,瑞芳區,猴硐蒙特梭利實小,334111.9589999992,2776279.916,121.83389299515908,25.092475023478357
新北市,瑞芳區,九份國小,335053.94200000045,2777909.951,121.84333199808681,25.107137021653664
新北市,瑞芳區,欽賢國中,335370.9909999994,2777839.931,121.84647099909766,25.106487023141838
新北市,瑞芳區,私立時雨國中,336282.99300000013,2778159.949,121.85553299931964,25.10932401530776
新北市,瑞芳區,瓜山國小,336419.9300000012,2778339.942,121.85690199548449,25.11094101485594
新北市,瑞芳區,濂洞國小,336699.96200000006,2779599.9169999994,121.85975799614424,25.122299015015926
新北市,瑞芳區,欽賢國中鼻頭分部,339422.9389999993,2779479.9530000007,121.88674999746263,25.121057015348995
新北市,瑞芳區,鼻頭國小,342708.9110000005,2779529.969,121.91933500075638,25.12131002128187
新北市,瑞芳區,吉慶國小,327028.9369999992,2777109.9310000003,121.76372299702892,25.100346016564067
新北市,瑞芳區,瑞亭國小,328396.99900000123,2777390.0169999995,121.7773020007975,25.102804014775042
新北市,瑞芳區,義方國小,330924.998,2778559.958,121.80243399756314,25.11323202253424
新北市,平溪區,菁桐國小,323364.93100000115,2768540.014,121.72694099540598,25.023163023000944
新北市,平溪區,平溪國中,323997.9629999989,2768669.926,121.73321999687037,25.02430501503879
新北市,平溪區,平溪國小,324422.9379999996,2769009.976,121.73744899700058,25.02735402188313
新北市,平溪區,十分國小,328495.95600000065,2770849.986,121.77790999602304,25.043759018459543
新北市,雙溪區,市立雙溪高中,337109.99499999906,2769939.911,121.86321199978437,25.0350720186885
新北市,雙溪區,雙溪國小,337513.93099999946,2769759.935,121.86720299928184,25.033424017357394
新北市,雙溪區,柑林國小,331197.9719999993,2767699.996,121.80449999927625,25.015180020223006
新北市,雙溪區,上林國小,334007.90800000064,2769240.0000000005,121.83243199957991,25.0289290228667
新北市,雙溪區,牡丹國小,335915.9849999989,2772970.0170000005,121.85157000466066,25.062494014923104
新北市,雙溪區,雙溪高中(國中部),337105.040999999,2769925.47,121.86316200049392,25.034941940422883
新北市,貢寮區,貢寮實中,341649.9250000016,2767879.93,121.90805899827309,25.01620801692257
新北市,貢寮區,和美國小,342092.95300000126,2775269.938,121.91294200270691,25.08289201915235
新北市,貢寮區,貢寮國小,342352.9859999997,2768519.963,121.91506699539096,25.021943022651282
新北市,貢寮區,澳底國小,343352.90199999907,2772160.015,121.92522000170297,25.05474102263717
新北市,貢寮區,福隆國小,345758.9869999998,2768039.914,121.94877799599433,25.017398019992296
新北市,貢寮區,福連國小,349797.92000000016,2767969.9820000003,121.9887859950679,25.01650601444834
新北市,新店區,景文科技大學,301426.52800000075,2760556.089,121.50927415048642,24.95198786968749
新北市,新店區,耕莘健康管理專科學校,304062.3220000007,2763242.1789999995,121.53548032262569,24.97614645454632
新北市,新店區,私立南強工商,305005.7029999994,2763768.704,121.54484500122263,24.98086601800551
新北市,新店區,私立開明工商,305145.7140000006,2763673.454,121.54622799646042,24.980001018707146
新北市,新店區,國立新店高中,303692.29299999983,2763181.4160000007,121.53181299933024,24.97561102301616
新北市,新店區,私立莊敬工家,303730.69400000025,2764305.0690000006,121.53223700274252,24.98575401979404
新北市,新店區,市立安康高中,301990.6999999995,2762421.533,121.51493099944354,24.968810014573542
新北市,新店區,私立崇光女中,304426.5689999999,2762758.749,121.5390689959491,24.971769021328086
新北市,新店區,私立能仁家商,304570.5329999996,2761114.3320000004,121.54043000241026,24.956918018256594
新北市,新店區,私立及人高中,301986.4099999994,2762141.833,121.51487800349005,24.966285014276682
新北市,新店區,私立康橋國中小學,300297.3740000013,2755965.583,121.4979260046474,24.910582021240877
新北市,新店區,達觀國中小(國小部),300542.9770000001,2760745.552,121.50053157255641,24.953728013762657
新北市,新店區,達觀國中小(國中部),300549.7470000004,2760745.846,121.50059862518003,24.953730442738532
新北市,新店區,雙城國小,299130.6619999999,2760556.771,121.48653899806442,24.95207001515767
新北市,新店區,安康高中(國中部),301990.6999999995,2762421.533,121.51493099944354,24.968810014573542
新北市,新店區,安坑國小,301915.70100000105,2761589.5090000005,121.51415699997737,24.961301018999926
新北市,新店區,北新國小,304912.9699999989,2762975.465,121.54389499597389,24.973708014426585
新北市,新店區,五峰國中,304926.423999999,2762163.159,121.54399600153555,24.96637402065705
新北市,新店區,文山國中,304441.4570000002,2761094.989,121.53915100427919,24.956748021359406
新北市,新店區,新店國小,304458.9409999995,2760709.925,121.53930900375492,24.953271023072638
新北市,新店區,新和國小,302311.85799999884,2764173.4120000005,121.51817799932078,24.98461501450332
新北市,新店區,直潭國小,303659.0009999988,2758994.554,121.53132099881398,24.9378130215313
新北市,新店區,中正國小,304181.1350000002,2762754.232,121.53663799755684,24.971737023304133
新北市,新店區,大豐國小,304290.9570000003,2763449.946,121.53775299996434,24.978014014389043
新北市,新店區,屈尺國小,305175.8709999992,2757305.4080000003,121.54627300326887,24.922509015680227
新北市,新店區,青潭國小,305842.91100000066,2760659.9960000003,121.55301200193668,24.952770015197096
新北市,新店區,龜山國小,305886.0070000001,2755057.743,121.55321299674965,24.902191023042022
新北市,新店區,雙峰國小,308111.378,2760523.209,121.57547000119415,24.951450017771197
新北市,坪林區,坪林國小,321807.90399999934,2758909.924,121.71101399602668,24.936300016738834
新北市,坪林區,坪林實中,321940.93899999897,2759079.987,121.7123400035365,24.937829014554158
新北市,烏來區,德拉楠民族實小,300763.7060000008,2741205.173,121.50200448326642,24.777306263290594
新北市,烏來區,烏來國中小(國中部),306002.2750000012,2750719.939,121.55418913188355,24.863024620281024
新北市,烏來區,烏來國中小(國小部),306005.7930000009,2750721.3010000004,121.55422399895521,24.86303678741357
新北市,永和區,私立智光商工,301912.8770000002,2765398.297,121.51427200471946,24.995687019558428
新北市,永和區,市立永平中學,301336.57299999986,2767064.706,121.50862500015774,25.010751019808442
新北市,永和區,私立復興商工,302345.85899999936,2766264.477,121.51859400101746,25.00349201499536
新北市,永和區,私立金甌女子高中永和分部,302410.49500000075,2767625.492000001,121.51928599836576,25.015777022604397
新北市,永和區,網溪國小,302417.15200000093,2767310.718,121.51934000062016,25.01293501487123
新北市,永和區,福和國中,302573.86800000095,2766321.399,121.52085499513036,25.003998014581335
新北市,永和區,秀朗國小,302618.70699999965,2765843.6150000007,121.52128100409236,24.999683022035196
新北市,永和區,私立育才國小,302652.0029999993,2766660.867,121.52164200464117,25.007060019170844
新北市,永和區,永和國中,302821.4320000011,2766620.4259999995,121.52331899552121,25.006689021371535
新北市,永和區,永平高中(國中部),301341.540999999,2767066.3830000004,121.50867428221756,25.010765991438365
新北市,永和區,頂溪國小,301632.8389999994,2767593.734,121.51157999704566,25.01551701957837
新北市,永和區,私立及人國小,301678.8009999998,2767610.3009999995,121.51203599613945,25.015665019056105
新北市,永和區,永平國小,301043.6670000011,2766764.984,121.50571199754707,25.008055020870863
新北市,永和區,永和國小,302183.8009999993,2766276.707,121.51698899507393,25.00360801625759
新北市,永和區,私立竹林國小,302211.60200000106,2767482.285,121.51731000215372,25.014491019460714
新北市,中和區,華夏科技大學,301285.394,2763585.916,121.50798883120719,24.97934612509623
新北市,中和區,私立南山高中,300817.6910000002,2766052.248,121.50344699567012,25.00162801686182
新北市,中和區,私立竹林高中,301084.7690000003,2763648.845,121.50600399906764,24.9799210198633
新北市,中和區,國立中和高中,298286.7549999994,2765196.5010000006,121.47834400298467,24.993985018521965
新北市,中和區,市立錦和高中,299573.90700000065,2765041.046000001,121.4910889999211,24.992540023106237
新北市,中和區,秀山國小,302609.2209999998,2765238.794,121.52116400091923,24.994223020532125
新北市,中和區,錦和高中(國中部),299574.71900000016,2765041.1809999994,121.4910970483648,24.99254121534629
新北市,中和區,中和國小,300632.9870000009,2765855.729,121.50160999908859,24.999860018140634
新北市,中和區,復興國小,300669.37600000016,2764724.5,121.50192900369422,24.989646020334735
新北市,中和區,積穗國中,298429.0999999998,2765907.455,121.4797790004907,25.000399019705444
新北市,中和區,積穗國小,298592.95200000104,2765759.277,121.48139699731188,24.99905601538121
新北市,中和區,光復國小,298747.95100000035,2767529.978,121.48299499775406,25.01503701933573
新北市,中和區,錦和國小,299405.9599999988,2764779.917,121.48941599622682,24.9901880158032
新北市,中和區,自強國中,297626.02100000106,2765610.3320000004,121.47181300207198,24.997742016675282
新北市,中和區,自強國小,297496.7900000004,2765500.004,121.47052900051322,24.996750021177043
新北市,中和區,景新國小,301988.44599999976,2764691.1200000006,121.51499399677743,24.989300018129097
新北市,中和區,漳和國中,301027.52100000007,2766168.669,121.50553000287424,25.002672019059816
新北市,中和區,中和國中,301338.2040000005,2764342.5230000005,121.50853999830555,24.986175022177797
新北市,中和區,興南國小,301397.2329999994,2764404.219,121.50912699658079,24.986730017047794
新北市,土城區,德霖技術學院,296083.0059999993,2762922.8960000006,121.45643773913743,24.97352723436575
新北市,土城區,市立清水高中,296975.66000000015,2763865.857,121.46531099843274,24.982013022014055
新北市,土城區,國立海山高工,295467.79900000035,2764004.098,121.4503800027048,24.98330702170191
新北市,土城區,私立中華高中,294202.9559999993,2763240.0,121.43782700419789,24.976446020930705
新北市,土城區,土城國中,293434.92300000123,2761683.407,121.43017100019436,24.96241502288997
新北市,土城區,頂埔國小,291837.6199999992,2760990.15,121.41433100430963,24.95620101659435
新北市,土城區,土城國小,294619.0689999992,2762791.201,121.44193399973797,24.972382020198083
新北市,土城區,樂利國小,295368.4419999997,2764496.34,121.44941200291106,24.987754017018293
新北市,土城區,清水國小,295907.1459999988,2763858.467,121.45472699919178,24.98197901537215
新北市,土城區,廣福國小,295922.260000001,2764409.353,121.45489500361758,24.98695202048712
新北市,土城區,清水高中(國中部),296975.933,2763865.182,121.4653136795942,24.98200691958918
新北市,土城區,中正國中,296120.0179999992,2764022.7830000003,121.4568410021205,24.9834560224306
新北市,土城區,安和國小,296918.8679999995,2764618.2010000004,121.46477400142308,24.98880701796197
新北市,三峽區,國立臺北大學,287683.5490000007,2759752.2510000006,121.37315898817307,24.945133705139312
新北市,三峽區,私立辭修高中,291255.95599999913,2758380.011,121.4084929976414,24.932652020204543
新北市,三峽區,市立明德高中,286940.99200000125,2755209.982,121.36568500146298,24.90414302003257
新北市,三峽區,大埔國小,286999.99499999965,2755320.0169999995,121.36627200481406,24.90513501758633
新北市,三峽區,中園國小,287065.9600000001,2757823.901,121.36699188413287,24.92773922374144
新北市,三峽區,三峽國小,287219.95300000074,2758660.002,121.36853899724761,24.93528401498606
新北市,三峽區,三峽國中,287318.90900000103,2759149.955,121.36953200133742,24.939705016925917
新北市,三峽區,安溪國小,287575.9439999995,2758260.01,121.37205299581142,24.931664020910848
新北市,三峽區,安溪國中,287653.97200000106,2757649.919,121.3728089993818,24.92615402010807
新北市,三峽區,北大國小,287668.2879999989,2759094.9739999995,121.37299000180256,24.939200015447447
新北市,三峽區,五寮國小,286399.9719999988,2750190.012,121.36019799687206,24.858834020863004
新北市,三峽區,明德高中(國中部),286761.3979999993,2755518.391,121.36391536506689,24.906931780693224
新北市,三峽區,大成國小,293205.9919999989,2757489.9309999994,121.42777299643456,24.92456202131251
新北市,三峽區,有木國小,294175.9990000005,2749669.909,121.43712800151992,24.853933021782375
新北市,三峽區,建安國小,295127.98899999907,2757679.981,121.44680800245222,24.92622201834677
新北市,三峽區,民義國小,287894.9149999989,2756019.929,121.37514999552594,24.9114320186236
新北市,三峽區,北大高中(國中部),287961.03100000066,2760076.021,121.37591556194039,24.94804987573044
新北市,三峽區,龍埔國小,288161.6780000009,2759260.2670000005,121.37787999994865,24.940680015876517
新北市,三峽區,介壽國小,288254.9429999992,2758010.01,121.37876899776317,24.929390021888235
新北市,三峽區,插角國小,290945.9919999988,2751699.9539999994,121.40522699560347,24.872351015056996
新北市,三峽區,成福國小,290976.90500000113,2758479.9700000007,121.40573300281378,24.933562020030354
新北市,樹林區,市立樹林高中,292649.4499999988,2763954.0479999995,121.42246200039247,24.982937020782813
新北市,樹林區,私立樹人家商,292326.9419999993,2765309.9140000003,121.41930900256831,24.995187019791768
新北市,樹林區,樹林高中(國中部),292648.7469999995,2763957.088,121.4224551307828,24.982964486144603
新北市,樹林區,彭福國小,292748.532000001,2763842.9279999994,121.42343999553505,24.981931023092905
新北市,樹林區,文林國小,293011.6569999989,2765568.912,121.42610000174903,24.997506018412775
新北市,樹林區,三多國小,291020.4349999997,2767651.600000001,121.40643599931515,25.016364018954356
新北市,樹林區,三多國中,291863.6239999993,2766547.874,121.41475678863124,25.006376365361437
新北市,樹林區,武林國小,291926.3179999988,2766023.999,121.41536200219846,25.001645015447064
新北市,樹林區,育林國小,291953.953,2764219.95,121.41558100260511,24.98535702216913
新北市,樹林區,育林國中,292011.91,2764249.923,121.41615600306264,24.9856260190506
新北市,樹林區,深坑國小,292100.9240000003,2764619.9279999994,121.41704899700946,24.988964014446637
新北市,樹林區,大同國小,292151.0820000005,2763772.291,121.41752000414498,24.98131001876621
新北市,樹林區,樹林國小,292179.5079999998,2764671.344,121.41782899772444,24.989426022415675
新北市,樹林區,桃子腳國中小(國小部),288662.45599999937,2760163.876,121.38286387324695,24.948825364953358
新北市,樹林區,桃子腳國中小(國中部),288662.45599999937,2760163.876,121.38286387324695,24.948825364953358
新北市,樹林區,柑園國中,288717.99700000056,2760991.288,121.38343700362739,24.956294022320705
新北市,樹林區,柑園國小,289349.9480000002,2760910.014,121.38969299838732,24.95554402057189
新北市,樹林區,育德國小,289628.578,2762611.0420000004,121.39250099761931,24.970894022000426
新北市,樹林區,山佳國小,290560.9909999996,2763125.943,121.40175099664378,24.975518015862903
新北市,鶯歌區,市立鶯歌工商,283816.9199999993,2759199.915,121.33485700094703,24.94023802143916
新北市,鶯歌區,鳳鳴國小,283920.972999999,2762330.003,121.33596400107554,24.96849502042552
新北市,鶯歌區,二橋國小,284062.96299999894,2759309.957,121.33729600402667,24.941226019058693
新北市,鶯歌區,昌福國小,284247.6910000012,2760907.53,121.33916467909724,24.955645214134513
新北市,鶯歌區,尖山國中,284566.9800000001,2759759.918,121.34229800349712,24.94527701744255
新北市,鶯歌區,鶯歌國中,284780.9119999988,2760419.942,121.34443299823958,24.95123101831502
新北市,鶯歌區,建國國小,284953.93399999884,2760839.953,121.34615700001842,24.955019021475845
新北市,鶯歌區,鶯歌國小,284961.9460000001,2760469.913,121.34622700132331,24.951678014674787
新北市,鶯歌區,中湖國小,285244.90800000017,2762900.01,121.34909100304924,24.973611022809827
新北市,鶯歌區,鳳鳴國中,283523.98999999947,2762279.958,121.33203099629183,24.968052020097275
新北市,鶯歌區,永吉國小,283577.957999999,2761269.93,121.33254099966065,24.958932017502995
新北市,三重區,私立金陵女中,297091.9300000009,2770529.9190000007,121.46668999586713,25.04217301753803
新北市,三重區,私立穀保家商,297581.97999999893,2773529.953,121.47165000243311,25.069242014731145
新北市,三重區,私立東海高中,298290.224,2773040.0840000003,121.47865299765073,25.06479701638212
新北市,三重區,國立三重商工,298431.57900000096,2773577.915,121.48007299524198,25.069648022156343
新北市,三重區,私立清傳高商,298115.12000000005,2771625.863,121.4768679993493,25.05203501737457
新北市,三重區,私立格致高中,299302.8620000002,2774045.26,121.48872599604364,25.073839018648748
新北市,三重區,國立三重高中,299539.97500000114,2775339.99,121.49112299687417,25.085520023033734
新北市,三重區,市立三重中學,299587.5910000005,2771925.55,121.49147200157523,25.05469301925234
新北市,三重區,三重高中(國中部),299587.96699999913,2771924.338,121.49147568443848,25.05468206500624
新北市,三重區,五華國小,299774.1220000002,2775472.988,121.49344899971855,25.086713020770098
新北市,三重區,碧華國中,299871.91099999886,2775019.975,121.49440199891808,25.0826200186571
新北市,三重區,正義國小,300052.09799999965,2773007.222,121.4961150010788,25.064443016996012
新北市,三重區,三光國小,300119.0310000012,2772089.21,121.4967450042073,25.056153015361822
新北市,三重區,三重國小,300168.4140000012,2773668.8179999995,121.49729200253059,25.07041202216055
新北市,三重區,光興國小,300324.7209999988,2772401.222,121.4987950017265,25.058963017638284
新北市,三重區,光榮國中,300433.5210000011,2773674.669,121.49991999865077,25.070456019044784
新北市,三重區,光榮國小,300574.26399999973,2773727.361,121.5013170016475,25.070927015391092
新北市,三重區,厚德國小,299304.0740000004,2773821.8470000005,121.48873000464897,25.07182201450781
新北市,三重區,修德國小,299336.3930000009,2773198.0140000004,121.4890279966368,25.066189014794404
新北市,三重區,明志國中,299340.6069999994,2772897.741,121.4890590024181,25.06347802050933
新北市,三重區,碧華國小,299504.6140000012,2775216.356,121.49076799879158,25.084405021633405
新北市,三重區,二重國小,298221.05900000007,2773084.1460000006,121.47796899607974,25.065197015981916
新北市,三重區,二重國中,298473.9869999991,2773142.087,121.48047799913637,25.065712015108037
新北市,三重區,永福國小,298485.58099999995,2774393.239,121.48063699988168,25.07700701460485
新北市,三重區,重陽國小,298880.02999999945,2773209.3319999995,121.4845050043149,25.066306023133343
新北市,三重區,三和國中,299077.40899999934,2774347.948,121.4865020022603,25.076579016081464
新北市,三重區,集美國小,299228.79600000056,2772120.751,121.48792299581399,25.056467015502253
新北市,三重區,興穀國小,297974.79000000085,2771418.236,121.47546999870845,25.0501650175675
新北市,新莊區,輔仁大學,293807.1390000002,2769495.9300000006,121.43410499945026,25.032936766603644
新北市,新莊區,私立恆毅高中,295789.18099999893,2769902.985,121.45375900383303,25.036553015987884
新北市,新莊區,國立新莊高中,294866.5469999989,2771188.241,121.44465799762466,25.048184018216848
新北市,新莊區,丹鳳國小,291762.5389999992,2768520.029,121.41381499950978,25.024184021722395
新北市,新莊區,丹鳳高中(國中部),291999.51000000065,2768187.292,121.41615291069051,25.02117347876976
新北市,新莊區,裕民國小,292167.5220000012,2768199.3889999995,121.41781799549788,25.02127802276107
新北市,新莊區,福營國中,292639.66200000024,2768648.898,121.42250999996861,25.02532301766903
新北市,新莊區,光華國小,292959.9629999998,2767789.9199999995,121.42565700087822,25.01755901838311
新北市,新莊區,民安國小,293174.6240000005,2768241.743,121.42779800043724,25.02163202041145
新北市,新莊區,國泰國小,294574.2530000005,2769635.013,121.44171100267363,25.0341700202342
新北市,新莊區,新泰國小,294732.98599999986,2770129.99,121.4432999992003,25.038634022378464
新北市,新莊區,豐年國小,294738.90800000104,2769276.781,121.44333099945017,25.030931017592053
新北市,新莊區,新泰國中,294840.22699999885,2770568.9739999995,121.44437700382929,25.042594022340236
新北市,新莊區,中平國中,294851.6039999996,2771805.38,121.44452999859229,25.05375602185007
新北市,新莊區,中港國小,295120.75099999993,2770844.043,121.44716600080093,25.04506901931042
新北市,新莊區,榮富國小,295141.8309999991,2771548.916,121.4473980019278,25.051432017404345
新北市,新莊區,中信國小,295190.3219999988,2771836.0710000005,121.44788800241174,25.054023016408077
新北市,新莊區,新莊國中,295661.04800000053,2769834.4350000005,121.45248699972771,25.035938014450146
新北市,新莊區,昌平國小,295965.54,2772102.283,121.45557999780212,25.056403018827844
新北市,新莊區,昌隆國小,295998.91500000044,2771569.943,121.4558930023537,25.051596022274815
新北市,新莊區,新莊國小,296057.8559999999,2769949.746,121.45642299968883,25.036967023088067
新北市,新莊區,思賢國小,296067.9649999996,2770901.813,121.45655499644757,25.04556201880143
新北市,新莊區,頭前國中,296359.7960000003,2771968.482,121.4594829995548,25.055183022545155
新北市,新莊區,興化國小,296573.07100000035,2773158.0630000005,121.4616370022983,25.065916023080984
新北市,新莊區,頭前國小,297031.1179999992,2771720.668,121.46612799777247,25.05292502081102
新北市,泰山區,黎明技術學院,292333.6149999988,2773141.97,121.41961552370574,25.065895438168237
新北市,泰山區,明志科技大學,292608.3,2770340.3000000003,121.42225150907912,25.040594040964613
新北市,泰山區,國立泰山高中,293371.9680000008,2772139.9849999994,121.42987600486711,25.056820021202242
新北市,泰山區,義學國小,293436.07699999923,2771651.712,121.43049600086303,25.052410022587136
新北市,泰山區,義學國中,293436.07699999923,2771651.712,121.43049600086303,25.052410022587136
新北市,泰山區,泰山國小,293512.48200000066,2772752.081,121.43128800375004,25.062342019052565
新北市,泰山區,泰山國中,292980.9139999987,2773062.313,121.42602899755772,25.065158019640304
新北市,泰山區,明志國小,293131.8510000009,2770857.222,121.42745600386787,25.045246018518455
新北市,泰山區,同榮國小,293193.8660000012,2771859.183,121.42810200085995,25.05429002214148
新北市,林口區,醒吾科技大學,290013.95700000064,2774781.128,121.39667093042735,25.080757080488038
新北市,林口區,私立醒吾高中,289867.9729999997,2774719.994,121.39522200035168,25.08020901933629
新北市,林口區,國立林口高中,288381.9510000005,2773969.946,121.3804699971267,25.073476015854055
新北市,林口區,東湖國小,288535.59199999983,2774243.677,121.3820006394025,25.075943372806805
新北市,林口區,佳林國中,288759.611,2774732.1060000006,121.3842350472016,25.08034721925435
新北市,林口區,林口國小,289387.93000000034,2774709.959,121.3904630046485,25.08013101846711
新北市,林口區,興福國小,281533.96000000066,2778259.929,121.3126870034062,25.112365022296345
新北市,林口區,嘉寶國小,284187.9910000012,2777829.919,121.33899300432856,25.108425021738167
新北市,林口區,瑞平國小,285264.944999999,2780069.91,121.34972899882419,25.128623021931382
新北市,林口區,南勢國小,286193.97499999945,2774139.9700000007,121.3587859957608,25.075065016014985
新北市,林口區,新林國小,286387.2049999991,2773707.946,121.36069000392584,25.071160011916362
新北市,林口區,新北市立新北特殊教育學校,286854.9740000009,2774539.942,121.36534900094095,25.078660023247448
新北市,林口區,麗林國小,287138.9569999993,2773349.9860000005,121.36813200334485,25.067910017543117
新北市,林口區,崇林國中,287352.9459999996,2773309.92,121.37025200152952,25.06754302281895
新北市,林口區,頭湖國小,287611.4140000008,2774993.9289999995,121.37285999706793,25.082740012437146
新北市,林口區,麗園國小,287978.90699999884,2773469.9309999994,121.37646099844909,25.068972016312653
新北市,林口區,林口國中,287999.9619999992,2774349.909,121.37669400209356,25.076916014673625
新北市,蘆洲區,市立三民高中,297643.34600000083,2775456.623,121.4723249973164,25.08663401912903
新北市,蘆洲區,私立徐匯高中,298417.4159999991,2774754.097,121.47997400136342,25.08026701592446
新北市,蘆洲區,三民高中(國中部),297710.335,2775431.638,121.47298822579845,25.086406339991825
新北市,蘆洲區,鷺江國小,298108.0639999997,2775314.369,121.47692700047709,25.085335019312698
新北市,蘆洲區,成功國小,296144.05399999977,2775344.907,121.45745799785514,25.085672014565464
新北市,蘆洲區,鷺江國中,296607.18800000066,2775868.527,121.4620669994051,25.090385021051105
新北市,蘆洲區,忠義國小,296787.44900000084,2775748.962,121.46385000445937,25.08930001486998
新北市,蘆洲區,蘆洲國中,297065.02900000085,2775490.2809999995,121.46659300087897,25.086956020973158
新北市,蘆洲區,蘆洲國小,297421.386000001,2775207.288,121.47011599756267,25.084390017049433
新北市,蘆洲區,仁愛國小,297507.1249999996,2775990.0440000007,121.4709930030521,25.091454019247866
新北市,五股區,更寮國小,297164.3810000011,2773632.6299999994,121.46751423639759,25.070182074709166
新北市,五股區,德音國小,293867.95299999893,2773809.927,121.43484500453906,25.07188202008173
新北市,五股區,五股國中,293909.916999999,2774970.005,121.43529799550264,25.082354016915602
新北市,五股區,五股國小,294063.9949999999,2775020.015,121.43682700469819,25.082801020151496
新北市,五股區,成州國小,295403.9449999992,2776889.943,121.4501720008559,25.099643021514737
新北市,五股區,成州國小附設幼稚園,295416.9559999997,2776889.986,121.45030100087158,25.09964301816295
新北市,八里區,私立聖心女中,295367.4249999994,2780855.944,121.44994099634398,25.135449019362
新北市,八里區,私立聖心國小,295408.5240000009,2780747.4180000005,121.45034500102601,25.134468015080877
新北市,八里區,長坑國小,289334.96700000006,2779739.9080000008,121.39008199984438,25.12554301788421
新北市,八里區,八里國中,290449.9680000011,2781260.014,121.4011840018809,25.139237021763577
新北市,八里區,八里國小,290628.9709999994,2782429.912,121.40299400111802,25.14979402287492
新北市,八里區,大崁國小,292279.86599999986,2783599.23,121.41940478340814,25.160305111563357
新北市,八里區,米倉國小,294903.9919999988,2782079.935,121.44538500196909,25.14651301806449
新北市,淡水區,台北海洋技術學院,292919.03899999894,2787131.281,121.4258558499722,25.19217408361879
新北市,淡水區,真理大學,293806.3770000004,2785293.5630000005,121.43460123625046,25.175557746449265
新北市,淡水區,淡江大學,295066.7699999997,2785106.165,121.44709907460356,25.173828692569394
新北市,淡水區,聖約翰科技大學,295508.0550000001,2790995.554,121.45167298832729,25.226983966453396
新北市,淡水區,國立淡水商工,295685.9909999992,2786749.963,121.45329699598112,25.188650017548387
新北市,淡水區,私立淡江高中,293922.9070000008,2785439.961,121.43576199822876,25.17687601469293
新北市,淡水區,淡水國中,294017.905999999,2785269.909,121.4366989977037,25.175338023449875
新北市,淡水區,文化國小,294087.9509999988,2785179.971,121.43739099645299,25.174524019733465
新北市,淡水區,新興國小,294326.938999999,2785799.941,121.43978199530947,25.18011402143976
新北市,淡水區,淡水國小,294523.9039999992,2785090.01,121.44171300329158,25.17369901676148
新北市,淡水區,新市國小,294802.9450000003,2786459.4630000005,121.44452609559619,25.186054002028705
新北市,淡水區,育英國小,294857.999000001,2787729.935,121.44511400027567,25.197522023248812
新北市,淡水區,正德國中賢孝分部,295020.54299999983,2790795.118,121.44682787734685,25.225189172397958
新北市,淡水區,屯山國小,295945.92399999924,2792160.0,121.45605799833119,25.23748302112386
新北市,淡水區,竹圍國小,296399.6850000011,2782199.418,121.46022386455822,25.147546353156326
新北市,淡水區,竹圍高中(國中部),296550.8980000007,2782032.661,121.46171799635536,25.146036218583067
新北市,淡水區,正德國中,295113.91199999995,2785689.993,121.44758599856428,25.179098014866305
新北市,淡水區,鄧公國小,295260.9199999988,2784889.964,121.44901800437287,25.17187102230319
新北市,淡水區,天生國小,292844.9399999999,2785929.986,121.4250829987717,25.181331020077085
新北市,淡水區,興仁國小,295443.9550000002,2789920.003,121.45100099718891,25.217276016438518
新北市,淡水區,水源國小,298028.90900000057,2786469.946,121.4765330047002,25.18604902063731
新北市,淡水區,忠山國小,298390.9870000006,2788069.955,121.48018200224502,25.200482014979915
新北市,淡水區,坪頂國小,298780.9519999999,2783399.915,121.4838849951928,25.158309023168872
新北市,淡水區,中泰國小,298817.9439999999,2790739.91,121.48451399806333,25.224572018801645
新北市,三芝區,馬偕醫學院,300033.7180000012,2793884.123,121.49669544748352,25.252917143704824
新北市,三芝區,三芝國中,300521.93899999966,2794639.9339999994,121.50157000037554,25.25972401573044
新北市,三芝區,興華國小,300537.94699999905,2788459.94,121.50149999972533,25.203932017198895
新北市,三芝區,三芝國小,300629.914000001,2794399.967,121.5026330005481,25.257554015882317
新北市,三芝區,橫山國小,303424.934,2794530.018,121.53038499546233,25.25863101546442
新北市,石門區,老梅國小,304889.93500000023,2797889.918,121.54506400246267,25.288910020922792
新北市,石門區,石門實中,306815.99499999976,2798169.938,121.5642009980198,25.29136602345378
新北市,石門區,石門國小,307122.92599999974,2798269.93,121.56725300301926,25.292257020897985
新北市,石門區,乾華國小,309670.92399999965,2795679.912,121.59244100127923,25.26877601989259