city,district,facility_name,x_coordinate,y_coordinate,longitude,latitude
臺北市,中正區,永寬公園,301449.234,2768776.804,121.50980500192382,25.02620402115447
臺北市,中正區,中正河濱公園,301802.024,2768386.687,121.51328600157287,25.02267001926158
臺北市,中正區,介壽公園,301925.899,2770208.827,121.5145819994597,25.039116018942245
臺北市,中正區,二二八和平公園,301993.382,2770481.127,121.51526100118183,25.04157201699396
臺北市,中正區,牯嶺公園,302362.418,2768477.768,121.51884200474528,25.02347302206536
臺北市,中正區,逸仙公園,302460.601,2771162.802,121.51991700099018,25.04771001970267
臺北市,中正區,南昌公園,302514.877,2768881.654,121.52036799697426,25.02711401603157
臺北市,中正區,河堤公園,302620.016,2768100.931,121.52138000411028,25.020062014815156
臺北市,中正區,林口社區公園,302952.439,2767666.237,121.52465699514532,25.01612601889894
臺北市,中正區,齊東公園,303325.293,2770507.751,121.5284610004397,25.04176601830081
臺北市,中正區,信愛公園,303357.099,2769753.551,121.52874699990609,25.03495601707357
臺北市,中正區,文光公園,303569.549,2770211.186,121.53087000353327,25.039080017060208
臺北市,中正區,連雲公園,303665.474,2769785.331,121.5318040032556,25.035232021571144
臺北市,大同區,延平公園,301177.976,2772002.865,121.50723700131374,25.055338022293213
臺北市,大同區,玉泉公園,301178.409,2771376.036,121.50721800391103,25.049679018271757
臺北市,大同區,塔城公園,301548.7,2771516.109,121.51089300341818,25.050931015949306
臺北市,大同區,大同公園,301652.042,2773404.083,121.51198800152427,25.067972021816562
臺北市,大同區,迪化公園,301657.926,2773795.003,121.51206099699155,25.071501021351764
臺北市,大同區,景化公園,301730.101,2773119.042,121.51275100494952,25.0653960190127
臺北市,大同區,朝陽公園,301777.769,2772069.372,121.51318400453208,25.05591802336681
臺北市,大同區,歸綏公園,301783.379,2772292.699,121.51324800248005,25.0579340161612
臺北市,大同區,德鄰公園,301931.828,2772735.446,121.51473599781401,25.061926019201515
臺北市,大同區,哈密公園,301992.609,2774153.61,121.51539199868832,25.07472701906104
臺北市,大同區,蘭州公園,301993.696,2772968.404,121.51535799722004,25.064027023029183
臺北市,大同區,大龍公園,302014.248,2773664.211,121.51558799517052,25.0703080155076
臺北市,大同區,太平公園,302033.72,2772738.271,121.51574600172434,25.061948018989206
臺北市,大同區,樹德公園,302084.008,2773281.998,121.51626500045442,25.066855019754456
臺北市,大同區,錦西公園,302144.441,2772489.91,121.51683400123098,25.05970201524995
臺北市,大同區,至聖公園,302216.602,2773776.195,121.51759800126173,25.07131201932979
臺北市,大同區,建成公園,302320.902,2771885.686,121.51855999719727,25.05424101880153
臺北市,中山區,民享公園,302572.824,2772442.262,121.52107799804521,25.059257014749516
臺北市,中山區,中山足球場,302622.737,2773575.051,121.52161599907747,25.069482016454163
臺北市,中山區,永靜公園,302642.458,2772699.622,121.52177799560056,25.061578020397135
臺北市,中山區,中山一號公園,302642.643,2773906.766,121.5218259977194,25.072476019677897
臺北市,中山區,撫順公園,302658.33,2773005.29,121.52194700101084,25.064337016833672
臺北市,中山區,中山三十三號公園,302807.367,2771226.611,121.52335599932357,25.048274016758608
臺北市,中山區,雙城兒童公園,302868.32,2773334.86,121.52404100184611,25.0673050186119
臺北市,中山區,晴光公園,302884.101,2772959.42,121.52418299713378,25.063915022844625
臺北市,中山區,中安公園,302888.002,2772135.215,121.52419000433078,25.056474021278202
臺北市,中山區,中山二號公園,302899.668,2773732.526,121.52436700412028,25.070894018000534
臺北市,中山區,中山美術公園,302912.539,2773665.229,121.5244919959217,25.07028601558381
臺北市,中山區,新興公園,302938.095,2772695.227,121.52470800494883,25.06152801770909
臺北市,中山區,永盛公園,302951.71,2772410.497,121.52483199890469,25.058957018583282
臺北市,中山區,十五號公園,302963.432,2771755.908,121.52492300477157,25.05304702162122
臺北市,中山區,雙城公園,302966.987,2773335.464,121.5250189990747,25.067307016378543
臺北市,中山區,劍潭公園,302971.811,2774690.946,121.52511899778474,25.079544020383253
臺北市,中山區,十四號公園,303123.569,2771753.982,121.526510002839,25.05302401647387
臺北市,中山區,河濱公園,303143.454,2774057.58,121.52679600188526,25.07382002175118
臺北市,中山區,民族公園,303151.59,2773574.886,121.52685800483093,25.069462016452686
臺北市,中山區,水安公園,303151.758,2774438.156,121.52689301733291,25.07725553452999
臺北市,中山區,北安公園,303154.634,2774424.486,121.52692099795387,25.07713202185808
臺北市,中山區,中原公園,303323.227,2772070.226,121.52850099884587,25.055872017993835
臺北市,中山區,仁德公園,303332.147,2771775.62,121.52857799695865,25.05321202087726
臺北市,中山區,吉林公園,303384.14,2771510.092,121.52908299510058,25.05081301725807
臺北市,中山區,錦州公園,303409.765,2772594.384,121.52937900114294,25.06060102256264
臺北市,中山區,新祿公園,303439.797,2773324.57,121.52970500269329,25.067192020149555
臺北市,中山區,長壽公園,303440.637,2774989.522,121.52977799832954,25.082223017784646
臺北市,中山區,新壽公園,303469.423,2772896.016,121.52998200475236,25.063322022916257
臺北市,中山區,三號公園,303569.786,2774186.852,121.53102700069172,25.07497201933975
臺北市,中山區,一江公園,303608.072,2771785.673,121.53131300429952,25.053293021728223
臺北市,中山區,德惠公園,303634.761,2773364.214,121.53163900065658,25.067543015528152
臺北市,中山區,興雅公園,303657.976,2771128.575,121.53178199600178,25.047359016332564
臺北市,中山區,新生公園,303662.341,2773559.938,121.53192000134095,25.06930901480468
臺北市,中山區,中吉公園,303662.805,2772107.778,121.53186799781514,25.056199020274132
臺北市,中山區,新喜公園,303699.659,2773126.762,121.53227299767599,25.0653970153005
臺北市,中山區,松錦公園,303719.479,2772474.641,121.53244400256234,25.059509017812275
臺北市,中山區,四平公園,303922.762,2771765.091,121.53443100436908,25.053096019841604
臺北市,中山區,伊通公園,303953.216,2771437.561,121.53471999702113,25.05013801725373
臺北市,中山區,農安公園,304014.732,2773129.114,121.53539599783474,25.065407020878727
臺北市,中山區,錦北公園,304021.325,2772585.16,121.53544000137595,25.060496017354634
臺北市,中山區,大佳河濱公園,304244.222,2774051.833,121.53770700113186,25.073729015142515
臺北市,中山區,建興公園,304305.369,2771107.763,121.53819699782608,25.047148021991923
臺北市,中山區,朱昌公園,304368.309,2772026.386,121.53885700196196,25.055439015296407
臺北市,中山區,榮星公園,304388.797,2772910.947,121.53909499510095,25.063424014752147
臺北市,中山區,江寧公園,304430.406,2772673.184,121.5394980039626,25.0612760151243
臺北市,中山區,合江公園,304442.38,2772377.704,121.53960499968726,25.05860801774079
臺北市,中山區,復華公園,304477.372,2771826.221,121.53992999594446,25.05362801727612
臺北市,中山區,朱崙公園,304659.193,2771347.878,121.54171299662151,25.049303015917626
臺北市,中山區,興安公園,304660.184,2772058.013,121.54175099662497,25.055714017492342
臺北市,中山區,興國公園,304663.217,2771779.334,121.54176999639401,25.053198018595683
臺北市,中山區,龍江公園,304702.255,2772512.218,121.54218600050521,25.059813016239097
臺北市,中山區,下埤公園,304724.13,2773322.129,121.54243500323972,25.06712401938076
臺北市,中山區,遼寧公園,304729.027,2771824.126,121.54242399939461,25.05360001636124
臺北市,中山區,培英公園,304974.941,2774974.023,121.54498700057644,25.082028019940037
臺北市,中山區,永安公園,305010.762,2774646.737,121.54532900481195,25.079072018722403
臺北市,中山區,大直公園,305178.305,2775050.056,121.54700600153907,25.082707019106877
臺北市,中山區,明水公園,305319.11,2774657.067,121.54838600478602,25.079154014450207
臺北市,中山區,永直公園,305543.518,2774916.734,121.55062099739702,25.081490017477467
臺北市,中山區,美堤河濱公園,306363.725,2774192.574,121.55872200205975,25.07492201588233
臺北市,松山區,八德公園,305073.019,2771093.447,121.54580400186484,25.046991022496485
臺北市,松山區,敦中公園,305074.249,2771413.902,121.54582900088306,25.049884017367017
臺北市,松山區,慶城公園,305114.558,2771801.752,121.54624399780805,25.053384022996905
臺北市,松山區,長春二號公園,305127.193,2772495.652,121.54639699541754,25.05964802340621
臺北市,松山區,長春一號公園,305229.716,2772617.357,121.54741800435951,25.06074302124775
臺北市,松山區,長春三號公園,305260.718,2772386.199,121.54771599756815,25.0586550178764
臺北市,松山區,敦化公園,305551.356,2771033.576,121.55054199974704,25.04643302056481
臺北市,松山區,市立體育場,305587.635,2771417.09,121.55091700263928,25.049894015710358
臺北市,松山區,敦北公園,305669.32,2772640.743,121.55177599513051,25.06093802180239
臺北市,松山區,延壽三號公園,305682.159,2772189.527,121.55188500076257,25.05686402030166
臺北市,松山區,富錦四號公園,305717.387,2772433.028,121.55224399686648,25.05906102295665
臺北市,松山區,北寧公園,305745.634,2771816.388,121.55249899754146,25.053493021857925
臺北市,松山區,延壽二號公園,305766.993,2772244.149,121.55272800069699,25.05735401499824
臺北市,松山區,富錦五號公園,305817.809,2772351.802,121.55323600247002,25.058324019125347
臺北市,松山區,美仁公園,305842.801,2771446.599,121.55344700078152,25.050151019700802
臺北市,松山區,仁吉公園,305856.855,2771192.888,121.55357599612677,25.047860023187695
臺北市,松山區,復源公園,305944.437,2771046.257,121.55443800243637,25.04653301612189
臺北市,松山區,民生公園,306295.05,2772254.403,121.5579619998378,25.05742701649893
臺北市,松山區,迎風河濱公園,306299.023,2774030.142,121.55807400208282,25.07345801484792
臺北市,松山區,中央公園,306326.019,2772182.753,121.55826600356775,25.05677901521559
臺北市,松山區,民權公園,306360.219,2772721.227,121.55862699806342,25.061639019219196
臺北市,松山區,長壽公園,306389.637,2771828.226,121.55888200405009,25.053576015054144
臺北市,松山區,富錦二號公園,306391.158,2772583.338,121.55892799801394,25.060393020364597
臺北市,松山區,富錦三號公園,306394.042,2772422.736,121.55895000456948,25.058943017404676
臺北市,松山區,富錦一號公園,306443.976,2772498.154,121.55944799863684,25.059622018375112
臺北市,松山區,婦聯公園,306475.489,2771953.749,121.5597380044925,25.054706018131675
臺北市,松山區,運動公園,306564.286,2772755.745,121.56065099589935,25.061943020707965
臺北市,松山區,新中公園,306584.895,2772603.413,121.56084899896639,25.060567015271165
臺北市,松山區,吉祥公園,306914.038,2771484.807,121.56406499591007,25.050456022639466
臺北市,松山區,西林公園,306938.783,2771866.284,121.5643259979264,25.053899019568203
臺北市,松山區,富民公園,307012.018,2772571.296,121.56508099581878,25.06026101840801
臺北市,松山區,撫遠公園,307197.277,2773025.224,121.5669359984747,25.064352019844137
臺北市,松山區,寶清公園,307280.246,2771670.545,121.56770200169045,25.05211901613026
臺北市,松山區,三民公園,307326.002,2772788.277,121.56820199703238,25.062208018508155
臺北市,松山區,新東公園,307356.526,2772415.338,121.56848899687611,25.05884001843126
臺北市,松山區,鵬程公園,307377.216,2772053.989,121.56867900261044,25.055577022768652
臺北市,松山區,健康公園,307391.308,2771893.988,121.56881199924774,25.05413201983865
臺北市,大安區,古莊公園,303205.056,2768370.144,121.52718700096773,25.02247202153338
臺北市,大安區,錦安公園,303277.459,2768981.416,121.5279279962227,25.027988019330586
臺北市,大安區,永康公園,303472.119,2769398.66,121.52987300038707,25.031748017705684
臺北市,大安區,金華公園,303610.694,2769163.602,121.53123700206069,25.0296210226365
臺北市,大安區,溫州公園,303634.061,2767966.413,121.53142199838891,25.018812016685224
臺北市,大安區,辛亥一號公園,303774.298,2768416.456,121.53282899927129,25.02287001642562
臺北市,大安區,民輝公園,303990.683,2770255.49,121.53504500046932,25.03946502254828
臺北市,大安區,民榮公園,304014.208,2769793.019,121.53526000431768,25.035289021767415
臺北市,大安區,大安森林公園,304115.619,2769030.788,121.53623500200769,25.028404017916984
臺北市,大安區,瑞安公園,304453.545,2768792.209,121.53957399623523,25.026238021576802
臺北市,大安區,龍新公園,304480.892,2768970.21,121.53985199554201,25.02784402138835
臺北市,大安區,敦親公園,304592.028,2768409.064,121.54093099854894,25.022774020986983
臺北市,大安區,龍生公園,304637.384,2768752.512,121.54139399963573,25.025873015887335
臺北市,大安區,龍圖公園,304650.697,2769259.547,121.54154600149252,25.030450018688764
臺北市,大安區,附中公園,304711.785,2769907.005,121.5421770044269,25.036293021417904
臺北市,大安區,開平公園,304739.23,2769126.87,121.54241799787003,25.029249019686063
臺北市,大安區,安祥公園,304751.432,2769708.669,121.54256200407022,25.034501023357052
臺北市,大安區,龍陣公園,304754.81,2768941.176,121.5425650048726,25.027572021638022
臺北市,大安區,和平公園,304757.653,2768483.276,121.54257499916787,25.02343802275321
臺北市,大安區,安東公園,304975.701,2769098.466,121.54476000353853,25.028984020729382
臺北市,大安區,和安公園,304991.627,2769705.092,121.54494200079249,25.034460021769018
臺北市,大安區,東豐公園,304996.996,2769850.329,121.54500099648703,25.035771016110345
臺北市,大安區,四維公園,305027.047,2769279.445,121.54527599910104,25.030616021953097
臺北市,大安區,仁慈公園,305065.969,2769663.3,121.54567700081526,25.034080023410535
臺北市,大安區,仁愛公園,305130.555,2769938.485,121.54632799717254,25.036562022345223
臺北市,大安區,群賢公園,305143.529,2768698.94,121.54640699721594,25.02537102083207
臺北市,大安區,塯公圳公園,305152.802,2770527.193,121.54657200487233,25.04187602186488
臺北市,大安區,德安公園,305285.229,2769746.153,121.54785300473576,25.034820020643814
臺北市,大安區,鳳雞公園,305327.927,2768821.307,121.54823900485091,25.026469015033783
臺北市,大安區,平安公園,305425.725,2769417.521,121.54923200020235,25.031848016493857
臺北市,大安區,居安公園,305440.154,2769169.239,121.54936499581254,25.029606015910428
臺北市,大安區,虎嘯公園,305458.451,2768415.542,121.54951599561294,25.022801019094025
臺北市,大安區,全安公園,305628.444,2768705.114,121.55121200427156,25.02540902038394
臺北市,大安區,臥龍公園,305702.848,2767609.375,121.55190499956828,25.015514022071244
臺北市,大安區,嘉興公園,305706.417,2768269.23,121.5519669962077,25.021471021796685
臺北市,大安區,通化公園,305805.403,2768868.331,121.55297199703011,25.02687601969677
臺北市,大安區,敦安公園,305897.428,2769711.204,121.55391799600459,25.034482016185272
臺北市,大安區,交通公園,305963.236,2769437.767,121.55455900173634,25.03201101748197
臺北市,大安區,福州山公園,306008.867,2767611.068,121.55493699912425,25.01551802182693
臺北市,大安區,文昌公園,306074.068,2769013.871,121.55563999858303,25.028180016490527
臺北市,大安區,永吉公園,306088.098,2770611.197,121.55584399665713,25.042600016927388
臺北市,大安區,黎孝公園,306106.118,2768090.092,121.55592000280194,25.019839019955043
臺北市,大安區,延吉公園,306113.901,2769857.086,121.55606900220712,25.035791015374596
臺北市,萬華區,雙園河濱公園,299101.089,2769530.792,121.48656500330635,25.033089015268203
臺北市,萬華區,雁鴨公園,299224.97,2769542.979,121.48779299642399,25.033195015662958
臺北市,萬華區,華江八號公園,299681.059,2769613.527,121.49231500406653,25.033817020991645
臺北市,萬華區,華江六號公園,299705.422,2769518.689,121.49255300380442,25.032960022918193
臺北市,萬華區,華江一號公園,299815.086,2769859.695,121.49365200123388,25.036035021073527
臺北市,萬華區,柳鄉公園,299973.414,2770026.866,121.49522699590969,25.037539020607834
臺北市,萬華區,東興公園,300127.415,2768209.088,121.49668700355409,25.02112301568492
臺北市,萬華區,桂林公園,300154.342,2770166.984,121.49702500250469,25.03879801927897
臺北市,萬華區,河濱公園,300175.214,2770281.261,121.49723599561266,25.039829019311444
臺北市,萬華區,西園公園,300179.493,2768868.782,121.49722699754784,25.027077016221863
臺北市,萬華區,華中河濱公園,300204.907,2767417.172,121.49742600074887,25.013971015383223
臺北市,萬華區,華西公園,300333.489,2770159.335,121.4988000008231,25.038723015487324
臺北市,萬華區,壽前公園,300361.221,2769589.654,121.49905400463076,25.033579015644804
臺北市,萬華區,長沙公園,300445.838,2770477.982,121.49992499677624,25.0415960155889
臺北市,萬華區,龍山寺公園,300448.225,2769831.668,121.49992499890219,25.035761019343248
臺北市,萬華區,老松公園,300730.929,2770146.406,121.50273799775024,25.03859301974634
臺北市,萬華區,青年公園,301010.139,2768474.095,121.50544299720862,25.023486022388692
臺北市,萬華區,馬場町紀念公園,301043.315,2768103.262,121.5057579986184,25.02013702297723
臺北市,信義區,黎富公園,306261.029,2768142.568,121.55745700014602,25.0203070225294
臺北市,信義區,中山公園,306406.372,2770194.914,121.55898100058185,25.038830021732274
臺北市,信義區,中興公園,306410.561,2769693.597,121.55900199937432,25.03430402248789
臺北市,信義區,三興公園,306464.217,2769066.209,121.55950799700278,25.02863801791159
臺北市,信義區,黎和公園,306476.348,2767888.69,121.55957999740845,25.018007015906864
臺北市,信義區,景新公園,306755.56,2769264.915,121.56240300335027,25.030421022919377
臺北市,信義區,景平公園,306890.55,2769226.153,121.56373899819158,25.03006601577378
臺北市,信義區,革新公園,307253.854,2770745.411,121.5674019992639,25.043768017084876
臺北市,信義區,厚生公園,307273.617,2770700.965,121.56759600154633,25.043366015624677
臺北市,信義區,吳興公園,307326.773,2768517.734,121.56803200418729,25.02365401928608
臺北市,信義區,極樂公園,307477.761,2767460.538,121.56948400262792,25.014104023082268
臺北市,信義區,富生公園,307494.984,2770563.989,121.5697840047355,25.042121015475274
臺北市,信義區,三犁公園,307531.847,2769022.81,121.57008500004473,25.02820601802855
臺北市,信義區,中強公園,307537.777,2769220.445,121.57015200314758,25.02999002134764
臺北市,信義區,福祥公園,307577.811,2770999.656,121.57062300293343,25.046051014658932
臺北市,信義區,六合公園,307616.73,2768015.293,121.57088399917033,25.019107023262837
臺北市,信義區,雅祥公園,307706.072,2771141.095,121.57190000275334,25.04732302050419
臺北市,信義區,兒童公園,307747.637,2770546.335,121.57228699622907,25.041952014575
臺北市,信義區,松德公園,307851.834,2769841.96,121.5732900015913,25.03558901967694
臺北市,信義區,安強公園,307905.792,2770087.539,121.57383499865954,25.03780401457796
臺北市,信義區,五常公園,307931.743,2771201.865,121.57413899736316,25.047863017567938
臺北市,信義區,虎林公園,307994.163,2769357.621,121.57468000239956,25.031211014812563
臺北市,信義區,永吉公園,308016.505,2770726.587,121.5749589970998,25.04356902039324
臺北市,信義區,中全公園,308029.991,2770165.05,121.5750690002358,25.03849901670216
臺北市,信義區,正義公園,308040.298,2771087.792,121.5752099959542,25.04682901980783
臺北市,信義區,松友公園,308156.573,2769635.01,121.5763010018223,25.033709019359016
臺北市,信義區,永春崗公園,308245.306,2769344.733,121.57716800324525,25.031085020261933
臺北市,信義區,永春公園,308389.137,2770567.783,121.5786450033216,25.042121022331226
臺北市,信義區,林口公園,308432.143,2770233.225,121.57905699939812,25.03909901573207
臺北市,信義區,中坡公園,308534.018,2771115.376,121.58010399650857,25.047059018818704
臺北市,信義區,春光公園,308605.27,2770595.293,121.58078799647399,25.04236102199384
臺北市,信義區,青商福德公園,308693.705,2770304.906,121.58165200097436,25.0397360188728
臺北市,信義區,福德公園,308915.967,2770152.449,121.58384800149445,25.038351019587456
臺北市,信義區,虎山溪公園,309299.095,2769813.494,121.58763000367793,25.035276015080335
臺北市,士林區,社子公園,301082.945,2775931.312,121.50644099921213,25.09080701878478
臺北市,士林區,海光公園,301249.067,2774914.647,121.50805000385255,25.08162301642208
臺北市,士林區,百齡公園,301477.621,2775591.19,121.5103409955562,25.087723019147067
臺北市,士林區,河基十五號河濱公園,301538.127,2776076.027,121.51095899997257,25.0920980210766
臺北市,士林區,葫蘆公園,301572.63,2775008.137,121.5112610027979,25.082456021874197
臺北市,士林區,美崙公園,302179.263,2776730.667,121.51733999773624,25.097986017337877
臺北市,士林區,福中公園,302340.38,2775617.958,121.51889499623886,25.08793501463776
臺北市,士林區,前港公園,302465.91,2775422.936,121.52013200039842,25.0861700177826
臺北市,士林區,德仁公園,302597.384,2777242.804,121.52150499827577,25.102595016015268
臺北市,士林區,基河公園,302656.045,2775817.67,121.52203200044706,25.08972701775737
臺北市,士林區,榮華公園,302697.618,2776570.277,121.522472996223,25.096520022209496
臺北市,士林區,德華公園,302773.002,2777003.228,121.5232369974666,25.10042601983162
臺北市,士林區,雙溪河濱公園,302973.3,2776929.015,121.52521999735755,25.09974901516548
臺北市,士林區,蘭嶼公園,303018.119,2778241.127,121.52571499999071,25.11159302099237
臺北市,士林區,忠誠公園,303034.236,2777339.648,121.52583999713052,25.10345401904897
臺北市,士林區,蘭興二號公園,303057.417,2778379.297,121.52610999559273,25.112839018939212
臺北市,士林區,士林名山公園,303188.724,2777011.38,121.5273590017042,25.100485018170723
臺北市,士林區,蘭雅公園,303444.11,2778038.536,121.52993099817472,25.109749022029597
臺北市,士林區,福林公園,303472.834,2776425.09,121.53015300445287,25.095182023366753
臺北市,士林區,天母公園,303545.044,2779838.586,121.53100200229025,25.125996023533826
臺北市,士林區,志成公園,303576.521,2776605.384,121.5311879965044,25.09680601812522
臺北市,士林區,芝山公園,303578.773,2777289.386,121.53123699580773,25.102981020341183
臺北市,士林區,天福公園,303700.673,2778808.277,121.53250499605869,25.116689018049552
臺北市,士林區,天母運動公園,303906.749,2778568.503,121.53453899551843,25.11451702137932
臺北市,士林區,天山公園,303918.156,2779049.615,121.53467099999901,25.11886001859733
臺北市,士林區,雙溪公園,304063.188,2776785.311,121.53602000177504,25.098413019505188
臺北市,士林區,至誠公園,304083.539,2777045.254,121.53623200047267,25.100759020451825
臺北市,士林區,至善公園,304267.906,2776819.577,121.53805100098297,25.0987150201086
臺北市,士林區,王秀杞石雕公園,306217.45,2780349.154,121.55752399718014,25.130508016112955
臺北市,士林區,帕米爾公園,309806.758,2779461.467,121.5930800024803,25.122356022406226
臺北市,北投區,關渡公園,296959.815,2779761.761,121.46569599674314,25.125522022524382
臺北市,北投區,忠義公園,298131.223,2780804.3,121.47734900291164,25.134897017324654
臺北市,北投區,桃源原生植物公園,298686.694,2781175.466,121.48287099845507,25.138230016228615
臺北市,北投區,稻香公園,299309.224,2781480.66,121.48905600391258,25.14096502201454
臺北市,北投區,豐年公園,300039.56,2780867.679,121.49627699879822,25.135407019000464
臺北市,北投區,文化公園,300132.389,2780987.429,121.49720199867038,25.1364850209236
臺北市,北投區,中庸公園,300555.959,2781157.032,121.50140899913931,25.1380020191016
臺北市,北投區,復興公園,300669.084,2781267.113,121.50253499550544,25.13899201458961
臺北市,北投區,立農公園,300789.978,2779079.785,121.50365300196879,25.119241018620638
臺北市,北投區,北投六一號公園,300834.423,2780328.86,121.50413999666813,25.13051601969003
臺北市,北投區,北投公園,300901.055,2781008.339,121.50482600301054,25.136648017258047
臺北市,北投區,奇岩公園,300950.304,2779515.924,121.50525899891332,25.123173020635047
臺北市,北投區,東華公園,300995.773,2779438.224,121.50570700021959,25.122470016750867
臺北市,北投區,陽明公園,301012.136,2781555.507,121.50594800447314,25.141584015908972
臺北市,北投區,吉利公園,301157.843,2779058.898,121.50730000211317,25.119040015378285
臺北市,北投區,丹鳳公園,301466.99,2779951.525,121.51039899911922,25.127088016963697
臺北市,北投區,石牌公園,301478.484,2778779.089,121.51046900352657,25.11650301912489
臺北市,北投區,崇仰公園,301614.766,2779833.342,121.51186000412655,25.126016022752466
臺北市,北投區,榮光公園,301864.248,2778562.562,121.51428600064784,25.114535020150587
臺北市,北投區,致遠公園,301938.439,2778175.046,121.51500699674588,25.111034018935886
臺北市,北投區,振華公園,302278.871,2778634.153,121.51839999699838,25.115167016920715
臺北市,北投區,榮華公園,302643.198,2778123.809,121.52199299762765,25.110547022804926
臺北市,北投區,社區公園,302897.443,2778229.691,121.52451800470548,25.111494015799302
臺北市,北投區,磺溪公園,302901.44,2778576.633,121.52457100395468,25.11462602120663
臺北市,北投區,唭哩岸公園,302928.547,2779800.949,121.5248870018613,25.125678018690007
臺北市,北投區,森林公園,304368.705,2783875.058,121.53933000083032,25.162407021084675
臺北市,北投區,陽明山公園,304410.974,2783011.782,121.53971499534913,25.154612020879924
臺北市,北投區,中山公園,305249.873,2782592.028,121.54801900303842,25.15079201461045
臺北市,北投區,前山公園,305394.155,2782639.693,121.54945199947093,25.151217021870767
臺北市,北投區,七星山公園,306148.49,2784056.317,121.5569920042563,25.16397802156366
臺北市,內湖區,北勢湖公園,306649.235,2775185.799,121.56159300191216,25.083878023211213
臺北市,內湖區,西湖公園,306950.778,2775083.486,121.56457800147761,25.0829430151812
臺北市,內湖區,洲子二號公園,307394.215,2774704.413,121.56895799757372,25.079504017444997
臺北市,內湖區,彩虹河濱公園,307650.037,2772558.358,121.57140400398997,25.060120018468414
臺北市,內湖區,河濱水岸公園,307779.702,2773841.382,121.5727429963848,25.071698015576303
臺北市,內湖區,麗山一號公園,307852.862,2775620.525,121.57354299878058,25.08775701923255
臺北市,內湖區,麗山四號公園,308033.895,2775486.489,121.57533199904668,25.086540018569497
臺北市,內湖區,港墘公園,308069.616,2774844.515,121.5756590049239,25.080743017302026
臺北市,內湖區,港富公園,308321.733,2774745.456,121.57815400490965,25.079839015140276
臺北市,內湖區,新明公園,308457.292,2771901.834,121.57937700252661,25.054162016891155
臺北市,內湖區,瑞陽公園,308460.485,2774500.144,121.57951899780228,25.07761901742486
臺北市,內湖區,碧湖公園,308662.295,2775145.796,121.58154699694978,25.083440021760836
臺北市,內湖區,十四號公園,308785.409,2774691.177,121.58274800319417,25.07933101797992
臺北市,內湖區,十三號公園,308843.367,2774725.544,121.58332399567689,25.079639020002297
臺北市,內湖區,大埤公園,308893.176,2775105.364,121.583834004094,25.083066022544354
臺北市,內湖區,紫陽公園,309165.451,2774429.413,121.58650399894061,25.076953021957955
臺北市,內湖區,金湖公園,309326.755,2775636.387,121.58815499635946,25.087843020903787
臺北市,內湖區,河濱公園,309332.841,2772196.379,121.58806700107718,25.05678701886726
臺北市,內湖區,湖興公園,309480.208,2773318.11,121.58957600259365,25.066908022367247
臺北市,內湖區,金龍公園,309715.066,2775556.113,121.5920009950543,25.08710301520638
臺北市,內湖區,六十四號公園,309963.834,2774980.21,121.59444200482561,25.081894023218076
臺北市,內湖區,成功公園,310216.938,2775231.331,121.59696199971214,25.084151019697508
臺北市,內湖區,大湖公園,310898.383,2775023.01,121.6037080010969,25.08224301542245
臺北市,內湖區,湖山三號公園,310971.613,2775565.996,121.60445800042659,25.08714201609313
臺北市,內湖區,康寧公園,311505.815,2773559.485,121.60966400170828,25.069006020148496
臺北市,內湖區,東湖二號公園,311628.602,2774094.39,121.61090500412747,25.073830022182822
臺北市,內湖區,安東公園,311650.699,2773580.299,121.61110100313584,25.069188020161953
臺北市,內湖區,東湖一號公園,311743.904,2774296.954,121.61205699562255,25.0756540162745
臺北市,內湖區,安康公園,311799.436,2773329.526,121.61256400444802,25.066918020479726
臺北市,內湖區,東湖七號公園,311995.562,2773996.693,121.61453799699211,25.0729330216714
臺北市,內湖區,五分公園,312025.097,2773358.796,121.61480200298412,25.06717301851762
臺北市,內湖區,東湖三號公園,312110.529,2773718.188,121.61566499797983,25.07041401995988
臺北市,內湖區,東湖四號公園,312299.061,2773746.518,121.6175350013059,25.070662015041798
臺北市,內湖區,安泰公園,312413.724,2774131.412,121.6186889957295,25.074132015922913
臺北市,內湖區,東湖五號公園,312633.103,2773680.147,121.6208429950997,25.070049023215713
臺北市,南港區,自忠公園,308664.445,2770891.187,121.58138700226775,25.04503001897014
臺北市,南港區,萬福公園,308974.355,2771026.662,121.58446400058384,25.046241017239602
臺北市,南港區,玉成公園,309090.987,2770610.899,121.58560200442899,25.04248301732906
臺北市,南港區,聯成公園,309265.608,2771065.252,121.58735199715939,25.04657801847509
臺北市,南港區,百福公園,309349.618,2770193.427,121.58814700116127,25.038704016499608
臺北市,南港區,成德公園,309399.736,2771268.984,121.58869000067942,25.048412018394448
臺北市,南港區,南港一號公園,309695.727,2770730.279,121.59160000350259,25.04353702048847
臺北市,南港區,向陽公園,309845.024,2772168.818,121.59314200122932,25.056518016041885
臺北市,南港區,新勝公園,309856.592,2771325.366,121.59321999932337,25.048903014676785
臺北市,南港區,重陽公園,310436.023,2772138.856,121.59899800353526,25.056224015960364
臺北市,南港區,東明公園,310563.836,2771985.565,121.6002579976755,25.05483501835596
臺北市,南港區,宜佳公園,310620.694,2772223.97,121.60083199566593,25.056985016372984
臺北市,南港區,東新公園,310906.851,2771996.174,121.60365799559074,25.054917016180625
臺北市,南港區,興南公園,310918.86,2772267.058,121.60378899553805,25.0573620219358
臺北市,南港區,興華公園,310995.897,2772210.577,121.60455000215987,25.05684901618985
臺北市,南港區,南興公園,311233.787,2771902.376,121.60689399990298,25.054057021014348
臺北市,南港區,興港公園,311822.336,2772060.437,121.61273399873512,25.055460015182057
臺北市,南港區,中研公園,311866.502,2771109.243,121.61312900031848,25.046871018280832
臺北市,南港區,九如公園,312155.184,2770180.982,121.61594799532652,25.03847902228706
臺北市,南港區,六福公園,312219.201,2771169.664,121.61662699866021,25.0474020200229
臺北市,南港區,新富公園,312230.422,2771785.148,121.61676600174091,25.052958022602656
臺北市,南港區,福山公園,312345.788,2770893.651,121.61786900085573,25.044905017533317
臺北市,南港區,胡適公園,312352.002,2770460.795,121.61791099800072,25.040997022661482
臺北市,南港區,舊莊公園,312591.245,2770509.298,121.620283999454,25.041425019670065
臺北市,南港區,理想公園,312733.905,2770339.922,121.6216899965241,25.03989001850464
臺北市,文山區,新店河濱公園,303841.86,2765431.115,121.53338200409577,24.995916022000003
臺北市,文山區,福和河濱公園,303993.414,2766267.225,121.53491599583286,25.00345902304877
臺北市,文山區,第十一號公園,304122.384,2766326.773,121.53619599885187,25.00399202105107
臺北市,文山區,第十號公園,304160.533,2766175.616,121.5365680042584,25.002626015659633
臺北市,文山區,萬年公園,304164.244,2766513.027,121.53661800080332,25.00567202277358
臺北市,文山區,景美河濱公園,304216.956,2764647.26,121.53706699510614,24.98882601652387
臺北市,文山區,萬康公園,304217.707,2766088.891,121.53713100274861,25.00184101976213
臺北市,文山區,景仁公園,304521.281,2765521.864,121.54011600481913,24.996711021251922
臺北市,文山區,萬有二號公園,304680.095,2765945.294,121.54170600279026,25.00052801858453
臺北市,文山區,萬有公園,304717.506,2765929.715,121.54207599673913,25.000386021694336
臺北市,文山區,景豐公園,304782.5,2765832.5,121.54271600191349,24.999506019401657
臺北市,文山區,景行公園,304815.598,2765054.164,121.5430130043679,24.992478020830152
臺北市,文山區,文山一號公園,304889.104,2765403.152,121.54375500461273,24.995626018965112
臺北市,文山區,木柵河濱公園,304996.18,2764254.377,121.54476999529336,24.98525101585686
臺北市,文山區,萬盛公園,305000.254,2765903.932,121.54487600153661,25.00014302018597
臺北市,文山區,興福公園,305116.34,2765552.936,121.54601199656638,24.996970021257532
臺北市,文山區,試院公園,305265.595,2764489.18,121.54744800289406,24.987361021540085
臺北市,文山區,仙岩公園,305454.562,2765690.324,121.54936799846526,24.998198021533575
臺北市,文山區,興旺公園,305569.5,2766545.246,121.55054100093284,25.00591201551647
臺北市,文山區,華興公園,305590.38,2764734.624,121.55067500120622,24.989565014902478
臺北市,文山區,興隆公園,305645.857,2765913.299,121.55127200047221,25.00020402183127
臺北市,文山區,堤外公園,305969.576,2763421.589,121.55437800214362,24.977697016267484
臺北市,文山區,光輝公園,306078.112,2764358.345,121.5554910016985,24.986150021781405
臺北市,文山區,安康公園,306274.885,2764429.6,121.55744299722642,24.98678602177916
臺北市,文山區,木新公園,306335.62,2763923.977,121.55802399506003,24.982219017116652
臺北市,文山區,樟新公園,306455.918,2763984.065,121.55921799751086,24.98275701775736
臺北市,文山區,三角公園,306483.871,2763742.487,121.55948500421825,24.980575017645275
臺北市,文山區,木柵一號公園,306495.758,2764458.422,121.55963199810469,24.987038014566785
臺北市,文山區,萬芳八號公園,306530.515,2766235.934,121.5600490011717,25.00308401871693
臺北市,文山區,萬芳九號公園,306624.698,2766112.929,121.56097699604504,25.00197002043047
臺北市,文山區,忠順公園,306655.357,2764021.996,121.56119499864896,24.983092022181925
臺北市,文山區,道南河濱公園,306868.27,2763683.821,121.56329000254338,24.980031022679242
臺北市,文山區,保儀公園,306883.7,2764076.886,121.56345900374812,24.983579021784983
臺北市,文山區,萬芳十一號公園,306935.059,2766195.409,121.56405500389542,25.002703018127328
臺北市,文山區,久康公園,306991.283,2764692.533,121.56455000277201,24.989133019560267
臺北市,文山區,新榮公園,307580.967,2764065.4,121.57036500493189,24.983449019352747
臺北市,文山區,木南公園,307637.275,2764431.39,121.5709379973473,24.986751020533056
臺北市,文山區,博嘉公園,307884.987,2765967.337,121.57345600346487,25.00060801832912
臺北市,文山區,福德坑環保公園,309439.117,2767039.585,121.58889800363225,25.01022801570585
新北市,萬里區,懷恩公園,318386.427,2783996.44,121.67838300486959,25.162931016447704
新北市,萬里區,中福休閒公園,318700.995,2784967.063,121.6815520041524,25.17167902224074
新北市,萬里區,瑪鍊運動公園,319493.109,2785306.513,121.68942700328428,25.17470702273216
新北市,金山區,濱海植物園,314289.946,2791680.271,121.6381099983951,25.23247802250258
新北市,金山區,海濱公園,315504.004,2791148.511,121.65013399810333,25.227625021490486
新北市,金山區,中正公園,315628.539,2791232.636,121.65137400348188,25.228379019000247
新北市,板橋區,扶輪公園,293090.015,2763636.314,121.42681599850879,24.98005601885971
新北市,板橋區,溪北公園,293534.535,2764653.543,121.43125100047264,24.989227018854706
新北市,板橋區,浮洲運動公園,295415.058,2767332.196,121.44996699888604,25.01335502022645
新北市,板橋區,環河滑草公園,295487.216,2767759.547,121.45069599820053,25.017211015776677
新北市,板橋區,環河公園,295490.783,2765715.606,121.45066400042279,24.99875802037375
新北市,板橋區,元智紀念公園,295652.811,2765772.414,121.45227100282817,24.99926601766026
新北市,板橋區,國光公園,295785.294,2768050.859,121.45365900410873,25.019832021240365
新北市,板橋區,茵園公園,295924.288,2768586.212,121.45505399739714,25.02466101684016
新北市,板橋區,板信公園,296111.489,2767242.923,121.45686400064717,25.012528017654983
新北市,板橋區,信義公園,296197.76,2765008.633,121.45764400368967,24.99235401715857
新北市,板橋區,板橋第二運動場,296263.686,2767335.483,121.45837500413016,25.013359016174146
新北市,板橋區,站前公園,296305.694,2766882.151,121.45877599811836,25.009265015907204
新北市,板橋區,忠孝公園,296449.657,2765446.344,121.46015399506004,24.99629801901832
新北市,板橋區,介壽公園,296713.163,2766796.143,121.46281000445471,25.008476021288317
新北市,板橋區,廣福公園,296737.587,2764934.702,121.46298899779535,24.991670017778333
新北市,板橋區,四維公園,296777.45,2768657.558,121.46351000108247,25.02527901450697
新北市,板橋區,重慶公園,296865.86,2765858.813,121.46429100050395,25.00000901595896
新北市,板橋區,五權公園,296903.756,2765021.667,121.46463799987387,24.992450015151153
新北市,板橋區,和平公園,296907.046,2765564.097,121.46468900468773,24.9973470205795
新北市,板橋區,溪頭公園,297166.53,2769557.318,121.46739600005189,25.033390017680517
新北市,板橋區,石雕公園,297421.76,2769117.242,121.46990999776929,25.02940901857923
新北市,板橋區,莊敬公園,297504.12,2768068.907,121.4706899956626,25.01994201889326
新北市,板橋區,農村公園,297541.428,2769181.791,121.47109800109436,25.02998801594726
新北市,板橋區,中山公園,297594.401,2768402.072,121.47159600463117,25.022947014360373
新北市,板橋區,華江公園,297595.394,2768058.591,121.47159399533076,25.019846019670815
新北市,板橋區,三號八德公園,298009.708,2768631.37,121.47571900222012,25.02500401522085
新北市,板橋區,民生公園,298053.567,2767379.98,121.47611000356865,25.01370501728157
新北市,板橋區,光復公園,299157.369,2768557.47,121.48708800155657,25.02430001778526
新北市,汐止區,運動公園,316420.752,2773147.536,121.65836000093027,25.065079019164173
新北市,汐止區,汐止公園,316472.92,2773456.839,121.65889199806924,25.067869020972775
新北市,汐止區,休閒公園,317610.658,2774802.643,121.67023499591657,25.07996802327385
新北市,汐止區,豉窟事件紀念公園,317828.045,2769769.987,121.67214200152021,25.0345250233765
新北市,瑞芳區,瑞芳公園,332719.109,2778085.547,121.82019399579603,25.108852022347808
新北市,瑞芳區,頌德公園,334544.153,2777995.507,121.83828300218632,25.107938017159018
新北市,瑞芳區,新山公園,336002.974,2777988.469,121.85274599566128,25.10779201519918
新北市,瑞芳區,瓜山公園,336118.098,2778396.963,121.85391300108493,25.111473021450916
新北市,瑞芳區,長仁公園,337340.706,2779421.566,121.8660999968001,25.12065201740337
新北市,雙溪區,雙溪公園,337205.04,2770070.235,121.86416200149773,25.036243019995275
新北市,貢寮區,龍洞南口海濱公園,342199.826,2776070.029,121.91405500458232,25.09010801841756
新北市,貢寮區,龍洞灣公園,342634.157,2779281.206,121.91857699954264,25.119069015256372
新北市,貢寮區,鹽寮海濱公園,343547.948,2770673.835,121.92705200170607,25.041313017782652
新北市,貢寮區,鹽寮濱海公園,343581.874,2770612.365,121.92738399737185,25.040756021208004
新北市,貢寮區,龍門公園,344402.276,2769279.933,121.93542199858963,25.02867701816473
新北市,貢寮區,福隆龍門河濱公園,344599.973,2768525.247,121.9373289999696,25.021852022426742
新北市,貢寮區,福隆海濱公園,345461.719,2768155.813,121.94584100476713,25.01846301923797
新北市,貢寮區,卯澳公園,349895.775,2767314.777,121.98970800312077,25.010585019979846
新北市,新店區,中央公園,299957.055,2760293.588,121.4947130037451,24.94966701939384
新北市,新店區,誠中公園,300100.613,2760028.607,121.49612499899389,24.94727001569673
新北市,新店區,聰明公園,300927.326,2756725.535,121.50419000330358,24.917422022172502
新北市,新店區,太平運動公園,303729.801,2761314.267,121.53211200026567,24.958753015712578
新北市,新店區,福民公園,303751.459,2762872.388,121.53238700036665,24.97281901667486
新北市,新店區,景美河濱公園,304164.359,2764851.527,121.53655399824567,24.990672017918847
新北市,新店區,交通公園,304372.943,2763270.83,121.53855800298511,24.976394017623093
新北市,新店區,原野公園,304980.924,2762848.91,121.54456300430863,24.97256301479276
新北市,新店區,中興公園,305033.164,2763844.136,121.5451200016067,24.981546021825
新北市,新店區,碧山公園,305043.298,2758073.923,121.54499100226477,24.929452019904325
新北市,烏來區,忠治公園,305239.578,2753114.632,121.54673699731441,24.88467201530041
新北市,永和區,中正公園,300990.071,2767522.647,121.50520899933703,25.014897019281165
新北市,永和區,仁愛公園,301131.149,2767097.166,121.50659099533912,25.011051015949967
新北市,永和區,福和公園,302746.011,2766206.754,121.5225560001918,25.00295701786076
新北市,永和區,福和運動公園,303360.221,2766781.467,121.52866299713737,25.008124020568435
新北市,中和區,清穗公園,297344.796,2765812.057,121.46903399946368,24.99957201535534
新北市,中和區,民德公園,297364.849,2765705.349,121.4692289959979,24.998608020560397
新北市,中和區,中和區運動公園,299504.143,2764987.293,121.49039599826412,24.99205701707285
新北市,中和區,四號公園,301783.664,2766011.896,121.51301500407547,25.00123102318746
新北市,土城區,第二河濱公園,293800.187,2763060.153,121.43383200255336,24.97483401435918
新北市,土城區,第一河濱公園,294564.503,2764232.295,121.44143999690817,24.98539402062245
新北市,土城區,五號公園,294862.438,2762932.445,121.44434899569781,24.973650016729184
新北市,土城區,華德公園,295775.435,2764964.127,121.45345899963141,24.99196502049966
新北市,三峽區,龍山公園,285878.128,2751503.276,121.35506800134624,24.870703019478587
新北市,三峽區,中山公園,287014.044,2758615.362,121.36649899910182,24.934886020097473
新北市,樹林區,河濱公園,289223.658,2762239.261,121.38848000382603,24.967548022791547
新北市,樹林區,中山公園,290575.309,2767422.983,121.40201899623018,25.014312022214362
新北市,樹林區,三福長青公園,291134.469,2767724.05,121.40756800040224,25.017015014569544
新北市,樹林區,三多公園,291389.467,2767740.216,121.41009500212822,25.017154016458583
新北市,樹林區,國揚公園,291891.109,2763972.42,121.41495100483206,24.983124017694628
新北市,樹林區,潭底公園,292187.905,2765353.569,121.41793300376257,24.99558501884359
新北市,樹林區,十三公園,293435.269,2765744.926,121.43030200463411,24.999083017258506
新北市,鶯歌區,三號公園,285257.357,2760572.018,121.34915500351724,24.952593018827507
新北市,三重區,仙公公園,297818.499,2773892.544,121.47400700165853,25.072508014847656
新北市,三重區,永豐公園,298376.545,2774047.37,121.4795439955429,25.073888014498518
新北市,三重區,福田公園,298378.626,2773346.889,121.47953999779696,25.06756402000866
新北市,三重區,永福公園,298530.578,2774335.468,121.48108100422225,25.07648401472931
新北市,三重區,三重疏洪道運動公園,298673.023,2771223.765,121.48238300487621,25.048387022337568
新北市,三重區,興華公園,298865.094,2772534.266,121.48433299982464,25.060212022576668
新北市,三重區,安北公園,298899.66,2774825.048,121.48475699529406,25.08089202162868
新北市,三重區,幸福公園,298917.536,2774200.829,121.48491200268823,25.075256016656255
新北市,三重區,二二八和平紀念公園,299096.515,2773692.277,121.48666799780054,25.07065901964032
新北市,三重區,六合公園,299217.676,2773525.345,121.48786299885866,25.069148020828308
新北市,三重區,慈化公園,299261.658,2775230.318,121.48836000422568,25.084539015572876
新北市,三重區,過圳公園,299299.058,2772529.513,121.48863399971319,25.060155022098044
新北市,三重區,碧華公園,299349.017,2775090.403,121.48922099990563,25.08327301739998
新北市,三重區,永德公園,299392.773,2773871.46,121.48961099507636,25.072267021746047
新北市,三重區,三張公園,299454.75,2773667.541,121.49021800226791,25.070424020874135
新北市,三重區,後竹圍公園,299507.371,2773873.537,121.49074700153204,25.072282021965922
新北市,三重區,大同公園,299515.785,2773167.317,121.49080499510161,25.065906016068457
新北市,三重區,慈祐公園,299554.791,2774899.412,121.49125399750791,25.081542021641372
新北市,三重區,河濱公園,299557.643,2771197.593,121.49114900183318,25.04812201474719
新北市,三重區,菜寮公園,299727.496,2772297.017,121.49287199886743,25.05804202069698
新北市,三重區,七號公園,299792.199,2773588.795,121.49356000366512,25.069702022348935
新北市,三重區,介壽公園,299855.221,2773901.055,121.49419599721668,25.072519014729114
新北市,三重區,大智公園,299905.227,2772861.912,121.49465399506276,25.0631360199112
新北市,三重區,五華公園,299916.563,2775277.783,121.49485399858568,25.084946019195588
新北市,三重區,仁愛公園,300123.605,2773673.084,121.49684800403055,25.070452022560566
新北市,三重區,正義公園,300181.085,2773460.401,121.4974100000637,25.06853002176832
新北市,三重區,信義公園,300297.497,2773080.566,121.49854999646146,25.065097016875768
新北市,三重區,光興公園,300351.752,2772294.321,121.4990590034488,25.057997018781204
新北市,三重區,三德公園,300507.346,2774225.898,121.50067199723084,25.075430019723843
新北市,三重區,龍濱公園,300689.388,2773940.905,121.50246599905003,25.072851021343787
新北市,三重區,獅子公園,300922.762,2773690.111,121.50477000152212,25.070579019125386
新北市,新莊區,青年公園,291322.702,2769192.808,121.4094770035097,25.030270017768128
新北市,新莊區,龍鳳公園,292033.295,2768198.421,121.41648800203286,25.021273015285185
新北市,新莊區,萬安公園,292375.269,2767990.242,121.4198699957002,25.01938402051482
新北市,新莊區,四維公園,292582.577,2768215.739,121.42193099587097,25.02141401786102
新北市,新莊區,西盛公園,293150.998,2767765.046,121.42754899951166,25.017329022532742
新北市,新莊區,後港公園,293244.891,2768681.149,121.42850800275862,25.0255970168522
新北市,新莊區,建福公園,293374.939,2768916.384,121.42980399988882,25.02771702066708
新北市,新莊區,黃城公園,295376.938,2771668.104,121.44973200308463,25.052501015034228
新北市,新莊區,榮和公園,295588.502,2769498.351,121.45175699663561,25.032906015462128
新北市,新莊區,中港三角公園,295708.325,2770724.376,121.45298499938173,25.043971019755148
新北市,新莊區,思賢公園,296054.52,2771118.758,121.45642900455125,25.047521016008712
新北市,新莊區,中正公園,296146.164,2770036.552,121.45730099581566,25.03774802148902
新北市,新莊區,福壽公園,296147.325,2771604.338,121.45736500192356,25.051902019801545
新北市,蘆洲區,三民公園,296387.885,2776257.567,121.45990599826644,25.093904020730722
新北市,五股區,獅子公園,292304.215,2780154.554,121.4195399996001,25.129206018107315
新北市,五股區,徨宗公園,293066.126,2774321.104,121.42691299876151,25.076520015540748
新北市,八里區,添丁公園,289863.949,2781742.887,121.39538599882653,25.143612020190087
新北市,八里區,公園,289942.215,2781974.176,121.39616899627221,25.1456980211502
新北市,八里區,龍米二號公園,294680.427,2782552.286,121.44318300173086,25.150784020612598
新北市,八里區,龍米河濱公園,294842.358,2782333.721,121.44478199706744,25.148806017043107
新北市,淡水區,淡水河堤親水公園,293719.838,2785114.868,121.43373699709203,25.173947022502027
新北市,淡水區,河濱公園,293725.759,2785123.194,121.43379600300273,25.174022016747216
新北市,淡水區,捷運公園,294289.34,2784688.596,121.43937300449308,25.170082014646677
新北市,淡水區,仙洞公園,298647.278,2788263.942,121.48273200294827,25.202225015399616
新北市,三芝區,芝蘭公園,297625.727,2793927.922,121.4727929951733,25.2533910148641
新北市,三芝區,海濱公園,297639.827,2793957.437,121.47293399757059,25.253657021153703
新北市,三芝區,景觀公園,297667.365,2793460.733,121.4731899956433,25.249172017335574
新北市,三芝區,中央公園,297738.888,2793233.022,121.47389200469432,25.247114018324748
新北市,三芝區,兒三公園,300841.356,2794666.83,121.50474200441445,25.259956018958235
新北市,石門區,老梅公園,304446.335,2798110.772,121.5406679950295,25.290920017241532